[
  {
    "title" : "Marché biologique des Batignolles",
    "id" : "4514",
    "street" : "34 boulevard des Batignolles",
    "coordinates" : [
      2.323882,
      48.882931
    ],
    "zipcode" : "75017"
  },
  {
    "title" : "Marché biologique Raspail",
    "id" : "4515",
    "street" : "boulevard Raspail",
    "coordinates" : [
      2.328535,
      48.845898
    ],
    "zipcode" : "75006"
  },
  {
    "title" : "Marché biologique Brancusi",
    "id" : "4516",
    "street" : "Place Constantin Brancusi",
    "coordinates" : [
      2.32073,
      48.836777
    ],
    "zipcode" : "75014"
  },
  {
    "title" : "Marché St Honoré",
    "id" : "5458",
    "street" : "place du marché saint honoré",
    "coordinates" : [
      2.33166,
      48.867519
    ],
    "zipcode" : "75001"
  },
  {
    "title" : "Marché Saint-Eustache-Les Halles",
    "id" : "5459",
    "street" : "rue montmartre",
    "coordinates" : [
      2.345756,
      48.863644
    ],
    "zipcode" : "75001"
  },
  {
    "title" : "Marché Bourse",
    "id" : "5460",
    "street" : "Place de la Bourse",
    "coordinates" : [
      2.340917,
      48.868755
    ],
    "zipcode" : "75002"
  },
  {
    "title" : "Marché couvert des Enfants Rouges",
    "id" : "5461",
    "street" : "39, rue de bretagne",
    "coordinates" : [
      2.362124,
      48.863094
    ],
    "zipcode" : "75003"
  },
  {
    "title" : "Marché Baudoyer",
    "id" : "5462",
    "street" : "place baudoyer",
    "coordinates" : [
      2.35558,
      48.85656
    ],
    "zipcode" : "75004"
  },
  {
    "title" : "Marché Maubert",
    "id" : "5463",
    "street" : "place maubert",
    "coordinates" : [
      2.348403,
      48.850098
    ],
    "zipcode" : "75005"
  },
  {
    "title" : "Marché Monge",
    "id" : "5464",
    "street" : "place monge",
    "coordinates" : [
      2.351804,
      48.84267
    ],
    "zipcode" : "75005"
  },
  {
    "title" : "Marché Port-Royal",
    "id" : "5465",
    "street" : "boulevard de port-royal",
    "coordinates" : [
      2.344444,
      48.837887
    ],
    "zipcode" : "75005"
  },
  {
    "title" : "Marché couvert Saint-Germain",
    "id" : "5466",
    "street" : "4\/6, rue lobineau",
    "coordinates" : [
      2.336203,
      48.851677
    ],
    "zipcode" : "75006"
  },
  {
    "title" : "Marché Raspail",
    "id" : "5467",
    "street" : "boulevard raspail",
    "coordinates" : [
      2.327658,
      48.848221
    ],
    "zipcode" : "75006"
  },
  {
    "title" : "Marché Saxe-Breteuil",
    "id" : "5468",
    "street" : "avenue de saxe",
    "coordinates" : [
      2.309266,
      48.848976
    ],
    "zipcode" : "75007"
  },
  {
    "title" : "Marché couvert Treilhard",
    "id" : "5469",
    "street" : "1 rue corvetto",
    "coordinates" : [
      2.314892,
      48.877422
    ],
    "zipcode" : "75008"
  },
  {
    "title" : "Marché Aguesseau",
    "id" : "5470",
    "street" : "place de la madeleine",
    "coordinates" : [
      2.323618,
      48.870022
    ],
    "zipcode" : "75008"
  },
  {
    "title" : "Marché Anvers",
    "id" : "5471",
    "street" : "place d'anvers",
    "coordinates" : [
      2.344808,
      48.882099
    ],
    "zipcode" : "75009"
  },
  {
    "title" : "Marché Alibert",
    "id" : "5472",
    "street" : "rue alibert",
    "coordinates" : [
      2.368674,
      48.871895
    ],
    "zipcode" : "75010"
  },
  {
    "title" : "Marché couvert St Martin",
    "id" : "5473",
    "street" : "31\/33 rue du château d?eau",
    "coordinates" : [
      2.358088,
      48.871101
    ],
    "zipcode" : "75010"
  },
  {
    "title" : "Marché couvert Saint-Quentin",
    "id" : "5474",
    "street" : "85 bis, bd magenta",
    "coordinates" : [
      2.355703,
      48.876682
    ],
    "zipcode" : "75010"
  },
  {
    "title" : "Marché Belleville",
    "id" : "5475",
    "street" : "boulevard de Belleville",
    "coordinates" : [
      2.379739,
      48.869492
    ],
    "zipcode" : "75011"
  },
  {
    "title" : "Marché Charonne",
    "id" : "5476",
    "street" : "Entre le n°129 bd de Charonne et la rue Alexandre Dumas",
    "coordinates" : [
      2.395896,
      48.854351
    ],
    "zipcode" : "75011"
  },
  {
    "title" : "Marché Bastille",
    "id" : "5477",
    "street" : "Boulevard Richard Lenoir",
    "coordinates" : [
      2.3717934,
      48.8597557
    ],
    "zipcode" : "75011"
  },
  {
    "title" : "Marché Père-Lachaise",
    "id" : "5478",
    "street" : "Bd de Ménilmontant",
    "coordinates" : [
      2.384568,
      48.865555
    ],
    "zipcode" : "75011"
  },
  {
    "title" : "Marché Popincourt",
    "id" : "5479",
    "street" : "Bd Richard-Lenoir",
    "coordinates" : [
      2.369964,
      48.86488
    ],
    "zipcode" : "75011"
  },
  {
    "title" : "Marché couvert Beauvau (marché d'Aligre)",
    "id" : "5480",
    "street" : "Place d’Aligre",
    "coordinates" : [
      2.378024,
      48.849251
    ],
    "zipcode" : "75012"
  },
  {
    "title" : "Marché découvert Beauvau (marché d'Aligre)",
    "id" : "5481",
    "street" : "Rue d'Aligre et place d’Aligre",
    "coordinates" : [
      2.37786,
      48.848686
    ],
    "zipcode" : "75012"
  },
  {
    "title" : "Marché Cours de Vincennes",
    "id" : "5482",
    "street" : "cours de Vincennes",
    "coordinates" : [
      2.40406,
      48.847656
    ],
    "zipcode" : "75012"
  },
  {
    "title" : "Marché Bercy",
    "id" : "5483",
    "street" : "Entre le n°14 place Lachambeaudie et le n°11 rue Baron-le-Roy",
    "coordinates" : [
      2.386585,
      48.835991
    ],
    "zipcode" : "75012"
  },
  {
    "title" : "Marché Daumesnil",
    "id" : "5484",
    "street" : "Bd de Reuilly",
    "coordinates" : [
      2.393153,
      48.839333
    ],
    "zipcode" : "75012"
  },
  {
    "title" : "Marché Ledru-Rollin",
    "id" : "5485",
    "street" : "Avenue Ledru-Rollin",
    "coordinates" : [
      2.37025,
      48.847298
    ],
    "zipcode" : "75012"
  },
  {
    "title" : "Marché Porte Dorée",
    "id" : "5486",
    "street" : "avenue Daumesnil",
    "coordinates" : [
      2.40024240000002,
      48.8378781
    ],
    "zipcode" : "75012"
  },
  {
    "title" : "Marché St Eloi",
    "id" : "5487",
    "street" : "36-38 rue de Reuilly",
    "coordinates" : [
      2.388483,
      48.845703
    ],
    "zipcode" : "75012"
  },
  {
    "title" : "Marché Alésia",
    "id" : "5488",
    "street" : "rue de la Glacière",
    "coordinates" : [
      2.341613,
      48.826637
    ],
    "zipcode" : "75013"
  },
  {
    "title" : "Marché Auguste-Blanqui",
    "id" : "5489",
    "street" : "Bd Blanqui",
    "coordinates" : [
      2.350438,
      48.829926
    ],
    "zipcode" : "75013"
  },
  {
    "title" : "Marché Bobillot",
    "id" : "5490",
    "street" : "rue Bobillot",
    "coordinates" : [
      2.347836,
      48.823299
    ],
    "zipcode" : "75013"
  },
  {
    "title" : "Marché Maison-Blanche",
    "id" : "5491",
    "street" : "avenue d'Italie",
    "coordinates" : [
      2.358062,
      48.823616
    ],
    "zipcode" : "75013"
  },
  {
    "title" : "Marché Salpétrière",
    "id" : "5492",
    "street" : "36 Boulevard de l'Hôpital",
    "coordinates" : [
      2.362196,
      48.840549
    ],
    "zipcode" : "75013"
  },
  {
    "title" : "Marché Vincent-Auriol",
    "id" : "5493",
    "street" : "Bd Vincent Auriol ",
    "coordinates" : [
      2.364608,
      48.833656
    ],
    "zipcode" : "75013"
  },
  {
    "title" : "Marché Jeanne d'Arc",
    "id" : "5494",
    "street" : "place Jeanne d’Arc",
    "coordinates" : [
      2.368547,
      48.829979
    ],
    "zipcode" : "75013"
  },
  {
    "title" : "Marché Paris Rive Gauche",
    "id" : "5495",
    "street" : "18 Rue Jean Anouilh",
    "coordinates" : [
      2.378086,
      48.83144
    ],
    "zipcode" : "75013"
  },
  {
    "title" : "Marché Brune",
    "id" : "5496",
    "street" : "boulevard Brune",
    "coordinates" : [
      2.310594,
      48.826584
    ],
    "zipcode" : "75014"
  },
  {
    "title" : "Marché Edgar Quinet",
    "id" : "5497",
    "street" : "boulevard Edgar Quinet",
    "coordinates" : [
      2.326078,
      48.840878
    ],
    "zipcode" : "75014"
  },
  {
    "title" : "Marché Villemain",
    "id" : "5498",
    "street" : "Avenue Villemain",
    "coordinates" : [
      2.317092,
      48.831627
    ],
    "zipcode" : "75014"
  },
  {
    "title" : "Marché Mouton-Duvernet",
    "id" : "5499",
    "street" : "Place Jacques Demy",
    "coordinates" : [
      2.327427,
      48.832054
    ],
    "zipcode" : "75014"
  },
  {
    "title" : "Marché Cervantes",
    "id" : "5500",
    "street" : "60 rue Bargue",
    "coordinates" : [
      2.310033,
      48.837402
    ],
    "zipcode" : "75015"
  },
  {
    "title" : "Marché Convention",
    "id" : "5501",
    "street" : "Rue Convention",
    "coordinates" : [
      2.298967,
      48.836514
    ],
    "zipcode" : "75015"
  },
  {
    "title" : "Marché Grenelle",
    "id" : "5502",
    "street" : "Bd de Grenelle",
    "coordinates" : [
      2.29515,
      48.849796
    ],
    "zipcode" : "75015"
  },
  {
    "title" : "Marché Lecourbe",
    "id" : "5503",
    "street" : "rue Lecourbe",
    "coordinates" : [
      2.282507,
      48.836456
    ],
    "zipcode" : "75015"
  },
  {
    "title" : "Marché Lefebvre",
    "id" : "5504",
    "street" : "boulevard Lefebvre",
    "coordinates" : [
      2.293957,
      48.830288
    ],
    "zipcode" : "75015"
  },
  {
    "title" : "Marché Saint-Charles",
    "id" : "5505",
    "street" : "Rue Saint-Charles",
    "coordinates" : [
      2.283251,
      48.844009
    ],
    "zipcode" : "75015"
  },
  {
    "title" : "Marché Auteuil",
    "id" : "5506",
    "street" : "Place Jean Lorrain",
    "coordinates" : [
      2.264981,
      48.848145
    ],
    "zipcode" : "75016"
  },
  {
    "title" : "Marché Gros-la-Fontaine",
    "id" : "5507",
    "street" : "37 Rue Gros",
    "coordinates" : [
      2.274678,
      48.851414
    ],
    "zipcode" : "75016"
  },
  {
    "title" : "Marché Point du Jour",
    "id" : "5508",
    "street" : "Avenue de Versailles",
    "coordinates" : [
      2.259366,
      48.838558
    ],
    "zipcode" : "75016"
  },
  {
    "title" : "Marché Porte Molitor",
    "id" : "5509",
    "street" : "Place de la Porte Molitor",
    "coordinates" : [
      2.256393,
      48.845367
    ],
    "zipcode" : "75016"
  },
  {
    "title" : "Marché Président Wilson",
    "id" : "5510",
    "street" : "Avenue du Président Wilson",
    "coordinates" : [
      2.295906,
      48.864952
    ],
    "zipcode" : "75016"
  },
  {
    "title" : "Marché Amiral Bruix",
    "id" : "5511",
    "street" : "Boulevard Bruix ",
    "coordinates" : [
      2.280239,
      48.875549
    ],
    "zipcode" : "75016"
  },
  {
    "title" : "Marché couvert de Passy",
    "id" : "5512",
    "street" : "Place de Passy",
    "coordinates" : [
      2.277675,
      48.857937
    ],
    "zipcode" : "75016"
  },
  {
    "title" : "Marché couvert Saint-Didier",
    "id" : "5513",
    "street" : "Rue Mesnil",
    "coordinates" : [
      2.283674,
      48.867165
    ],
    "zipcode" : "75016"
  },
  {
    "title" : "Marché Berthier",
    "id" : "5514",
    "street" : "Boulevard de Reims",
    "coordinates" : [
      2.299619,
      48.890244
    ],
    "zipcode" : "75017"
  },
  {
    "title" : "Marché couvert des Ternes",
    "id" : "5515",
    "street" : "8 bis rue Lebon",
    "coordinates" : [
      2.291998,
      48.881016
    ],
    "zipcode" : "75017"
  },
  {
    "title" : "Marché Navier",
    "id" : "5516",
    "street" : "rue Navier",
    "coordinates" : [
      2.324209,
      48.89584
    ],
    "zipcode" : "75017"
  },
  {
    "title" : "Marché couvert Batignolles",
    "id" : "5517",
    "street" : "96 bis rue Lemercier",
    "coordinates" : [
      2.31893100000002,
      48.889496
    ],
    "zipcode" : "75017"
  },
  {
    "title" : "Marché Ornano",
    "id" : "5518",
    "street" : "Boulevard Ornano",
    "coordinates" : [
      2.34700529999998,
      48.8946897
    ],
    "zipcode" : "75018"
  },
  {
    "title" : "Marché Barbès",
    "id" : "5519",
    "street" : "Boulevard de la Chapelle",
    "coordinates" : [
      2.3568831,
      48.8843661
    ],
    "zipcode" : "75018"
  },
  {
    "title" : "Marché Ney",
    "id" : "5520",
    "street" : "Bd Ney",
    "coordinates" : [
      2.34941960000003,
      48.8982437
    ],
    "zipcode" : "75018"
  },
  {
    "title" : "Marché Ordener",
    "id" : "5521",
    "street" : "Rue Ordener",
    "coordinates" : [
      2.34612579999998,
      48.8922017
    ],
    "zipcode" : "75018"
  },
  {
    "title" : "Marché couvert La Chapelle",
    "id" : "5522",
    "street" : "10 rue de l’Olive",
    "coordinates" : [
      2.36128629999996,
      48.8906884
    ],
    "zipcode" : "75018"
  },
  {
    "title" : "Marché Villette",
    "id" : "5523",
    "street" : "Boulevard de la Villette",
    "coordinates" : [
      2.37040730000001,
      48.8785398
    ],
    "zipcode" : "75019"
  },
  {
    "title" : "Marché Jean Jaurès",
    "id" : "5524",
    "street" : "185 avenue Jean-Jaurès",
    "coordinates" : [
      2.38925549999999,
      48.8877956
    ],
    "zipcode" : "75019"
  },
  {
    "title" : "Marché Joinville",
    "id" : "5525",
    "street" : "Place de Joinville",
    "coordinates" : [
      2.37974170000007,
      48.8897083
    ],
    "zipcode" : "75019"
  },
  {
    "title" : "Marché Porte d'Aubervilliers",
    "id" : "5526",
    "street" : "Avenue de la Porte d’Aubervilliers",
    "coordinates" : [
      2.37112479999996,
      48.8992455
    ],
    "zipcode" : "75019"
  },
  {
    "title" : "Marché Place des Fêtes",
    "id" : "5527",
    "street" : "Place des Fêtes",
    "coordinates" : [
      2.394091,
      48.877172
    ],
    "zipcode" : "75019"
  },
  {
    "title" : "Marché Porte Brunet",
    "id" : "5528",
    "street" : "Avenue de la Porte Brunet",
    "coordinates" : [
      2.3970051,
      48.8836167
    ],
    "zipcode" : "75019"
  },
  {
    "title" : "Marché Crimée-Curial",
    "id" : "5529",
    "street" : "rue de Crimée",
    "coordinates" : [
      2.38216320000004,
      48.8859857
    ],
    "zipcode" : "75019"
  },
  {
    "title" : "Marché Belgrand",
    "id" : "5530",
    "street" : "Rue Belgrand",
    "coordinates" : [
      2.40355269999998,
      48.8647004
    ],
    "zipcode" : "75020"
  },
  {
    "title" : "Marché Davout",
    "id" : "5531",
    "street" : "Boulevard Davout",
    "coordinates" : [
      2.41012290000003,
      48.8559552
    ],
    "zipcode" : "75020"
  },
  {
    "title" : "Marché Mortier",
    "id" : "5532",
    "street" : "74 boulevard Mortier",
    "coordinates" : [
      2.40893610000001,
      48.8691135
    ],
    "zipcode" : "75020"
  },
  {
    "title" : "Marché Pyrénées",
    "id" : "5533",
    "street" : "Rue des Pyrénées",
    "coordinates" : [
      2.40030100000001,
      48.8613629
    ],
    "zipcode" : "75020"
  },
  {
    "title" : "Marché Réunion",
    "id" : "5534",
    "street" : "Place de la Réunion",
    "coordinates" : [
      2.40089829999999,
      48.8554751
    ],
    "zipcode" : "75020"
  },
  {
    "title" : "Marché Télégraphe",
    "id" : "5535",
    "street" : "rue du Télégraphe",
    "coordinates" : [
      2.3992068,
      48.8732267
    ],
    "zipcode" : "75020"
  },
  {
    "title" : "Marché Georges Brassens",
    "id" : "6582",
    "street" : "2, place Jacques Marette",
    "coordinates" : [
      2.3002917,
      48.8413278
    ],
    "zipcode" : "75015"
  },
  {
    "title" : "Marché aux fleurs et aux oiseaux Cité",
    "id" : "4506",
    "street" : "Place Louis Lépine et Quai de la Corse",
    "coordinates" : [
      2.347389,
      48.855289
    ],
    "zipcode" : "75004"
  },
  {
    "title" : "Marché aux fleurs Madeleine",
    "id" : "4507",
    "street" : "Place de la Madeleine",
    "coordinates" : [
      2.324889,
      48.869919
    ],
    "zipcode" : "75008"
  },
  {
    "title" : "Marché aux timbres",
    "id" : "4508",
    "street" : "avenue Marigny",
    "coordinates" : [
      2.314485,
      48.86869
    ],
    "zipcode" : "75008"
  },
  {
    "title" : "Marché de la création Edgar Quinet",
    "id" : "4511",
    "street" : "boulevard Edgar Quinet",
    "coordinates" : [
      2.326805,
      48.840637
    ],
    "zipcode" : "75014"
  },
  {
    "title" : "Marché aux fleurs Ternes",
    "id" : "4513",
    "street" : "place des Ternes",
    "coordinates" : [
      2.297945,
      48.878345
    ],
    "zipcode" : "75017"
  },
  {
    "title" : "Marché aux puces de la porte de Montreuil",
    "id" : "4517",
    "street" : "Avenue du Professeur André Lemierre",
    "coordinates" : [
      2.414974,
      48.856331
    ],
    "zipcode" : "75020"
  },
  {
    "title" : "Marché aux puces de la porte de Vanves",
    "id" : "4518",
    "street" : "Avenue Georges Lafenestre",
    "coordinates" : [
      2.3102007,
      48.8246095
    ],
    "zipcode" : "75014"
  },
  {
    "title" : "Marché aux puces de Clignancourt",
    "id" : "4519",
    "street" : "Avenue de la Porte de Clignancourt",
    "coordinates" : [
      2.344159,
      48.899628
    ],
    "zipcode" : "75018"
  },
  {
    "title" : "Marché aux puces de la rue Jean Henri Fabre",
    "id" : "4520",
    "street" : "rue Jean Henri Fabre",
    "coordinates" : [
      2.339796,
      48.901207
    ],
    "zipcode" : "75018"
  },
  {
    "title" : "Marché Edgar Quinet",
    "id" : "5497",
    "street" : "boulevard Edgar Quinet",
    "coordinates" : [
      2.326078,
      48.840878
    ],
    "zipcode" : "75014"
  },
  {
    "title" : "Marché du livre ancien et d'occasion George Brassens",
    "id" : "6463",
    "street" : "104, rue Brancion",
    "coordinates" : [
      2.30173639999998,
      48.8296972
    ],
    "zipcode" : "75015"
  },
  {
    "title" : "Marché de la création Bastille",
    "id" : "6581",
    "street" : "Boulevard Richard Lenoir",
    "coordinates" : [
      2.3703342782959,
      48.8548991832047
    ],
    "zipcode" : "75011"
  }
]