[
  {
    "title" : "Parc Floral",
    "id" : "1",
    "street" : "Avenue des Minimes",
    "coordinates" : [
      2.43991589999996,
      48.8402804
    ],
    "zipcode" : "75012"
  },
  {
    "title" : "Parc de Bercy",
    "id" : "5",
    "street" : "128 quai de bercy",
    "coordinates" : [
      2.383089,
      48.835175
    ],
    "zipcode" : "75012"
  },
  {
    "title" : "Square de la Tour Saint-Jacques",
    "id" : "33",
    "street" : "39 rue de rivoli",
    "coordinates" : [
      2.349811,
      48.857986
    ],
    "zipcode" : "75004"
  },
  {
    "title" : "Square Jean XXIII",
    "id" : "35",
    "street" : "4 place du parvis notre dame",
    "coordinates" : [
      2.348011,
      48.853874
    ],
    "zipcode" : "75004"
  },
  {
    "title" : "Square Louis XIII",
    "id" : "36",
    "street" : "30 place des vosges",
    "coordinates" : [
      2.365614,
      48.855038
    ],
    "zipcode" : "75004"
  },
  {
    "title" : "Parc des Buttes-Chaumont",
    "id" : "1757",
    "street" : "1 rue Botzaris",
    "coordinates" : [
      2.38113139999996,
      48.8769645
    ],
    "zipcode" : "75019"
  },
  {
    "title" : "Square Louise Michel",
    "id" : "1762",
    "street" : "6 place Saint Pierre",
    "coordinates" : [
      2.34370000000001,
      48.88437
    ],
    "zipcode" : "75018"
  },
  {
    "title" : "Jardin des Halles",
    "id" : "1765",
    "street" : "1 rue Pierre-Lescot ",
    "coordinates" : [
      2.345312,
      48.861595
    ],
    "zipcode" : "75001"
  },
  {
    "title" : "Promenade plantée",
    "id" : "1772",
    "street" : "290  avenue daumesnil",
    "coordinates" : [
      2.4060091,
      48.8357522
    ],
    "zipcode" : "75012"
  },
  {
    "title" : "Jardin Atlantique",
    "id" : "1775",
    "street" : "1 place des 5 Martyrs du Lycée Buffon ",
    "coordinates" : [
      2.318952,
      48.839695
    ],
    "zipcode" : "75015"
  },
  {
    "title" : "Parc de Belleville",
    "id" : "1777",
    "street" : "47 rue des Couronnes ",
    "coordinates" : [
      2.384909,
      48.870243
    ],
    "zipcode" : "75020"
  },
  {
    "title" : "Jardin des serres d'Auteuil",
    "id" : "1780",
    "street" : "1 avenue Gordon-Bennett",
    "coordinates" : [
      2.25101089999998,
      48.8461702
    ],
    "zipcode" : "75016"
  },
  {
    "title" : "Jardin d'acclimatation",
    "id" : "1781",
    "street" : "45 avenue du Mahatma Gandhi",
    "coordinates" : [
      2.2630511,
      48.8760934
    ],
    "zipcode" : "75016"
  },
  {
    "title" : "Esplanade des Invalides",
    "id" : "1787",
    "street" : "1 rue Fabert",
    "coordinates" : [
      2.3116741,
      48.8624176
    ],
    "zipcode" : "75007"
  },
  {
    "title" : "Parc André-Citroën",
    "id" : "1791",
    "street" : "2 rue Cauchy ",
    "coordinates" : [
      2.274058,
      48.842461
    ],
    "zipcode" : "75015"
  },
  {
    "title" : "Jardin du Luxembourg",
    "id" : "1793",
    "street" : "2 rue Auguste Comte",
    "coordinates" : [
      2.33829519999995,
      48.8441127
    ],
    "zipcode" : "75006"
  },
  {
    "title" : "Parc Kellermann",
    "id" : "1794",
    "street" : "19 rue de la poterne des peupliers",
    "coordinates" : [
      2.35298539999997,
      48.8202423
    ],
    "zipcode" : "75013"
  },
  {
    "title" : "Jardin des Tuileries",
    "id" : "1795",
    "street" : "113 rue de Rivoli ",
    "coordinates" : [
      2.328243,
      48.863022
    ],
    "zipcode" : "75001"
  },
  {
    "title" : "Arboretum de l'Ecole Du Breuil",
    "id" : "1796",
    "street" : "50 route de la Pyramide",
    "coordinates" : [
      2.46206000000006,
      48.8194559
    ],
    "zipcode" : "75012"
  },
  {
    "title" : "Jardin du Palais Royal",
    "id" : "1797",
    "street" : "2 place Colette ",
    "coordinates" : [
      2.337728,
      48.864716
    ],
    "zipcode" : "75001"
  },
  {
    "title" : "Jardin Villemin",
    "id" : "1798",
    "street" : "14 rue des Récollets ",
    "coordinates" : [
      2.361447,
      48.874512
    ],
    "zipcode" : "75010"
  },
  {
    "title" : "Jardin des Plantes",
    "id" : "1799",
    "street" : "2 rue Buffon",
    "coordinates" : [
      2.36396009999999,
      48.8433178
    ],
    "zipcode" : "75005"
  },
  {
    "title" : "Parc de Choisy",
    "id" : "1803",
    "street" : "128 avenue de Choisy",
    "coordinates" : [
      2.35910220000005,
      48.8272517
    ],
    "zipcode" : "75013"
  },
  {
    "title" : "Parc Monceau",
    "id" : "1804",
    "street" : "35 boulevard Courcelles ",
    "coordinates" : [
      2.30906,
      48.879364
    ],
    "zipcode" : "75008"
  },
  {
    "title" : "Parc Georges-Brassens",
    "id" : "1805",
    "street" : "2 place Jacques Marette ",
    "coordinates" : [
      2.299962,
      48.831532
    ],
    "zipcode" : "75015"
  },
  {
    "title" : "Parc Sainte-Périne",
    "id" : "1806",
    "street" : "39 rue Mirabeau ",
    "coordinates" : [
      2.269213,
      48.84502
    ],
    "zipcode" : "75016"
  },
  {
    "title" : "Jardin du Champ de Mars",
    "id" : "1807",
    "street" : "2 allée Adrienne Lecouvreur",
    "coordinates" : [
      2.30196580000006,
      48.8549876
    ],
    "zipcode" : "75007"
  },
  {
    "title" : "Parc de Bagatelle",
    "id" : "1808",
    "street" : "Château de Bagatelle",
    "coordinates" : [
      2.24591599999997,
      48.8702252
    ],
    "zipcode" : "75016"
  },
  {
    "title" : "Parc de la Villette",
    "id" : "1809",
    "street" : "211 avenue Jean Jaurès ",
    "coordinates" : [
      2.390299,
      48.893166
    ],
    "zipcode" : "75019"
  },
  {
    "title" : "Parc Montsouris",
    "id" : "1810",
    "street" : "2 rue Gazan",
    "coordinates" : [
      2.33994010000004,
      48.8246459
    ],
    "zipcode" : "75014"
  },
  {
    "title" : "Parc de la Butte-du-Chapeau-Rouge",
    "id" : "1811",
    "street" : "5 avenue Debidour",
    "coordinates" : [
      2.39717040000005,
      48.8815532
    ],
    "zipcode" : "75019"
  },
  {
    "title" : "Jardin d'Agronomie Tropicale",
    "id" : "1813",
    "street" : "45 bis, avenue de la Belle-Gabrielle",
    "coordinates" : [
      2.46643410000001,
      48.8326204
    ],
    "zipcode" : "75012"
  },
  {
    "title" : "Square de la place Dauphine",
    "id" : "2406",
    "street" : "6 rue de Harlay ",
    "coordinates" : [
      2.342921,
      48.85622
    ],
    "zipcode" : "75001"
  },
  {
    "title" : "Square du Temple",
    "id" : "2425",
    "street" : "64 rue de Bretagne ",
    "coordinates" : [
      2.361017,
      48.863777
    ],
    "zipcode" : "75003"
  },
  {
    "title" : "Square René-Viviani",
    "id" : "2441",
    "street" : "2 rue du Fouarre",
    "coordinates" : [
      2.34766880000006,
      48.8516817
    ],
    "zipcode" : "75005"
  },
  {
    "title" : "Jardins des Champs-Elysées",
    "id" : "2471",
    "street" : "10 avenue des Champs Elysées ",
    "coordinates" : [
      2.316253,
      48.868362
    ],
    "zipcode" : "75008"
  },
  {
    "title" : "Parc Omnisport Suzanne Lenglen",
    "id" : "2544",
    "street" : "2 rue Louis Armand",
    "coordinates" : [
      2.2770147,
      48.8332522
    ],
    "zipcode" : "75015"
  },
  {
    "title" : "Jardins d'Eole",
    "id" : "2761",
    "street" : "20 rue du département",
    "coordinates" : [
      2.36582210000006,
      48.8855567
    ],
    "zipcode" : "75018"
  },
  {
    "title" : "Bois de Boulogne",
    "id" : "2779",
    "street" : "Bois de Boulogne",
    "coordinates" : [
      2.248196,
      48.863571
    ],
    "zipcode" : "75016"
  },
  {
    "title" : "Pré Catelan et jardin Shakespeare",
    "id" : "2780",
    "street" : "Pré catelan",
    "coordinates" : [
      2.25483399999996,
      48.866304
    ],
    "zipcode" : "75016"
  },
  {
    "title" : "Parc Clichy-Batignolles - Martin-Luther-King",
    "id" : "2817",
    "street" : "147 rue Cardinet",
    "coordinates" : [
      2.31586049999998,
      48.8889396
    ],
    "zipcode" : "75017"
  },
  {
    "title" : "Square du Vert-Galant",
    "id" : "2825",
    "street" : "Place du Pont-Neuf ",
    "coordinates" : [
      2.341348,
      48.85704
    ],
    "zipcode" : "75001"
  },
  {
    "title" : "Jardins Abbé-Pierre - Grands-Moulins",
    "id" : "5044",
    "street" : "15 rue Thomas Mann",
    "coordinates" : [
      2.38052219999997,
      48.8301077
    ],
    "zipcode" : "75013"
  },
  {
    "title" : "Jardin Serge-Gainsbourg",
    "id" : "6337",
    "street" : "9 Avenue de la Porte des Lilas",
    "coordinates" : [
      2.40820140000005,
      48.8777899
    ],
    "zipcode" : "75019"
  },
  {
    "title" : "Bois de Vincennes",
    "id" : "6598",
    "street" : "route de la Pyramide",
    "coordinates" : [
      2.45001579999996,
      48.8303772
    ],
    "zipcode" : "75012"
  },
  {
    "title" : "Parc des pelouses d'Auteuil",
    "id" : "16592",
    "street" : "Route d’Auteuil aux Lacs",
    "coordinates" : [
      2.25412679999999,
      48.8521299
    ],
    "zipcode" : "75016"
  },
  {
    "title" : "Jardin d'enfants de la Porte de Châtillon",
    "id" : "1821",
    "street" : "12 avenue de la Porte de Châtillon ",
    "coordinates" : [
      2.317664,
      48.823967
    ],
    "zipcode" : "75014"
  },
  {
    "title" : "Jardin d'enfants du Général Humbert",
    "id" : "1824",
    "street" : "6-10 rue du Général Humbert",
    "coordinates" : [
      2.30784189999997,
      48.8265389
    ],
    "zipcode" : "75014"
  },
  {
    "title" : "Jardin d'enfants des Quatre Frères Peignot",
    "id" : "1830",
    "street" : "11 rue des Quatre Frères Peignot ",
    "coordinates" : [
      2.283518,
      48.846836
    ],
    "zipcode" : "75015"
  },
  {
    "title" : "Jardin d'enfants Pinel",
    "id" : "1832",
    "street" : "30 rue Pinel ",
    "coordinates" : [
      2.358315,
      48.834419
    ],
    "zipcode" : "75013"
  },
  {
    "title" : "Jardin d'enfants Dupuy de Lome",
    "id" : "1834",
    "street" : "3 rue Dupuy de Lome ",
    "coordinates" : [
      2.371158,
      48.821472
    ],
    "zipcode" : "75013"
  },
  {
    "title" : "Jardin d'enfants Docteur Landouzy",
    "id" : "1837",
    "street" : "5 rue du Docteur Landouzy ",
    "coordinates" : [
      2.353441,
      48.822922
    ],
    "zipcode" : "75013"
  },
  {
    "title" : "Jardin d'enfants Edouard Robert",
    "id" : "1843",
    "street" : "16 rue Edouard Robert ",
    "coordinates" : [
      2.399558,
      48.836781
    ],
    "zipcode" : "75012"
  },
  {
    "title" : "Jardin d'enfants Max Jacob",
    "id" : "1846",
    "street" : "12-14 rue Max Jacob",
    "coordinates" : [
      2.34974421160882,
      48.8235866395917
    ],
    "zipcode" : "75013"
  },
  {
    "title" : "Jardin d'enfants Jacques Kellner",
    "id" : "1852",
    "street" : "28 rue  Jacques Kellner ",
    "coordinates" : [
      2.325407,
      48.896336
    ],
    "zipcode" : "75017"
  },
  {
    "title" : "Jardin d'enfants Fernand Pelloutier",
    "id" : "1854",
    "street" : "4 rue Fernand Pelloutier ",
    "coordinates" : [
      2.324176,
      48.898254
    ],
    "zipcode" : "75017"
  },
  {
    "title" : "Jardin d'enfants Henri Turot",
    "id" : "1856",
    "street" : "20 rue Henri Turot ",
    "coordinates" : [
      2.373749,
      48.876781
    ],
    "zipcode" : "75019"
  },
  {
    "title" : "Jardin d'enfants Albin Haller",
    "id" : "1859",
    "street" : "5 rue Albin Haller ",
    "coordinates" : [
      2.349084,
      48.822575
    ],
    "zipcode" : "75013"
  },
  {
    "title" : "Jardin d'enfants Alphonse Karr",
    "id" : "1864",
    "street" : "24 rue Alphonse Karr ",
    "coordinates" : [
      2.380505,
      48.894932
    ],
    "zipcode" : "75019"
  },
  {
    "title" : "Multi-accueil Le Trempoline",
    "id" : "1866",
    "street" : "31 rue Claude Bernard ",
    "coordinates" : [
      2.347676,
      48.839638
    ],
    "zipcode" : "75005"
  },
  {
    "title" : "Jardin d'enfants Victor Dejeante",
    "id" : "1871",
    "street" : "3 rue Victor Dejeante ",
    "coordinates" : [
      2.409613,
      48.867088
    ],
    "zipcode" : "75020"
  },
  {
    "title" : "Jardin d'enfants Schubert",
    "id" : "1874",
    "street" : "6 rue Schubert ",
    "coordinates" : [
      2.411789,
      48.85194
    ],
    "zipcode" : "75020"
  },
  {
    "title" : "Jardin d'enfants Félix Terrier",
    "id" : "1876",
    "street" : "8 rue Félix Terrier ",
    "coordinates" : [
      2.410719,
      48.85817
    ],
    "zipcode" : "75020"
  },
  {
    "title" : "Jardin d'enfants de la Solidarité",
    "id" : "1878",
    "street" : "6 bis rue de la Solidarité",
    "coordinates" : [
      2.39075270000001,
      48.8834417
    ],
    "zipcode" : "75019"
  },
  {
    "title" : "Jardin d'enfants Ambroise Rendu",
    "id" : "1881",
    "street" : "9 avenue Ambroise Rendu ",
    "coordinates" : [
      2.395839,
      48.884949
    ],
    "zipcode" : "75019"
  },
  {
    "title" : "Jardin d'enfants Eugène Fournière",
    "id" : "1885",
    "street" : "20 rue Eugène Fournière",
    "coordinates" : [
      2.34086383068848,
      48.8990274101934
    ],
    "zipcode" : "75018"
  },
  {
    "title" : "Jardin d'enfants Marcadet",
    "id" : "1888",
    "street" : "251 rue Marcadet ",
    "coordinates" : [
      2.328487,
      48.892815
    ],
    "zipcode" : "75018"
  },
  {
    "title" : "Jardin d'enfants Mathurin Moreau",
    "id" : "1889",
    "street" : "14 bis avenue Mathurin Moreau",
    "coordinates" : [
      2.37226970000006,
      48.8781751
    ],
    "zipcode" : "75019"
  },
  {
    "title" : "Jardin d'enfants Jean Varenne",
    "id" : "1892",
    "street" : "5 rue Jean Varenne",
    "coordinates" : [
      2.33591372883609,
      48.8985562653873
    ],
    "zipcode" : "75018"
  },
  {
    "title" : "Jardin d'enfants Victor Hutinel",
    "id" : "1897",
    "street" : "5 rue du Docteur Victor Hutinel ",
    "coordinates" : [
      2.36525,
      48.832111
    ],
    "zipcode" : "75013"
  },
  {
    "title" : "AJEFA (Association des parents d'élèves des jardins d'enfants franco-allemands)",
    "id" : "1902",
    "street" : "19 rue Lucien Sampaix",
    "coordinates" : [
      2.36095560000001,
      48.8724304
    ],
    "zipcode" : "75010"
  },
  {
    "title" : "Jardin d'enfants Notre-Dame du Perpétuel Secours",
    "id" : "1908",
    "street" : "15 rue René Villerme ",
    "coordinates" : [
      2.386092,
      48.862232
    ],
    "zipcode" : "75011"
  },
  {
    "title" : "Jardin d'enfants des Nations-Unies (Associatif)",
    "id" : "1912",
    "street" : "40 rue Pierre Guérin ",
    "coordinates" : [
      2.264832,
      48.850483
    ],
    "zipcode" : "75016"
  },
  {
    "title" : "AJEFA (Association des parents d'élèves des jardins d'enfants franco-allemands)",
    "id" : "1915",
    "street" : "32 rue des Rasselins ",
    "coordinates" : [
      2.408692,
      48.85495
    ],
    "zipcode" : "75020"
  },
  {
    "title" : "AJEFA (Association des parents d'élèves des jardins d'enfants franco-allemands)",
    "id" : "1918",
    "street" : "134 rue du Faubourg Saint Martin ",
    "coordinates" : [
      2.358788,
      48.874577
    ],
    "zipcode" : "75010"
  },
  {
    "title" : "Jardin d'enfants Gan Yaël (Associatif)",
    "id" : "1919",
    "street" : "29 Bis rue de Thionville ",
    "coordinates" : [
      2.385462,
      48.890148
    ],
    "zipcode" : "75019"
  },
  {
    "title" : "Jardin d'enfants Le Petit d'Homme (fermé)",
    "id" : "1922",
    "street" : "6 rue des Bluets ",
    "coordinates" : [
      2.382008,
      48.864414
    ],
    "zipcode" : "75011"
  },
  {
    "title" : "Jardin d'enfants Les Benjamins du 20ème (Associatif)",
    "id" : "1926",
    "street" : "50 bis rue des Prairies ",
    "coordinates" : [
      2.402314,
      48.863213
    ],
    "zipcode" : "75020"
  },
  {
    "title" : "Jardin d'enfants Les Lutins (associatif)",
    "id" : "1929",
    "street" : "8 rue de Saint-Simon",
    "coordinates" : [
      2.3239658,
      48.856291
    ],
    "zipcode" : "75007"
  },
  {
    "title" : "Jardin d'enfants Les Petits Dragons",
    "id" : "2094",
    "street" : "2 rue Jacquemont",
    "coordinates" : [
      2.32332650000001,
      48.8885619
    ],
    "zipcode" : "75017"
  },
  {
    "title" : "Jardin d'enfants de Tanger",
    "id" : "3592",
    "street" : "24 rue de Tanger",
    "coordinates" : [
      2.37041859999999,
      48.8876221
    ],
    "zipcode" : "75019"
  },
  {
    "title" : "Jardin d'enfants de l'OPAC Camille Flammarion",
    "id" : "3593",
    "street" : "15 rue Camille Flammarion ",
    "coordinates" : [
      2.339952,
      48.898853
    ],
    "zipcode" : "75018"
  },
  {
    "title" : "Jardin d'enfants de l'OPAC de l'Orme",
    "id" : "3594",
    "street" : "17 rue de l'Orme ",
    "coordinates" : [
      2.399983,
      48.878845
    ],
    "zipcode" : "75019"
  },
  {
    "title" : "Jardin d'enfants Sinaï (associatif)",
    "id" : "3642",
    "street" : "2-6 rue Tristan Tzara",
    "coordinates" : [
      2.36579810000001,
      48.8946466
    ],
    "zipcode" : "75018"
  },
  {
    "title" : "Jardin maternel municipal Italie",
    "id" : "3698",
    "street" : "170 avenue d'Italie ",
    "coordinates" : [
      2.35886,
      48.821033
    ],
    "zipcode" : "75013"
  },
  {
    "title" : "Jardin d'enfants L'Ecole Gulliver (associatif)",
    "id" : "3786",
    "street" : "59-61 rue des Pirogues de Bercy ",
    "coordinates" : [
      2.388638,
      48.833717
    ],
    "zipcode" : "75012"
  },
  {
    "title" : "Jardin d'enfants de Belleville",
    "id" : "3838",
    "street" : "327 rue de Belleville ",
    "coordinates" : [
      2.404565,
      48.876602
    ],
    "zipcode" : "75019"
  },
  {
    "title" : "Jardin d'enfants de l'OPAC Jakubowicz",
    "id" : "3852",
    "street" : "28 rue Hélène Jakubowicz ",
    "coordinates" : [
      2.398006,
      48.869598
    ],
    "zipcode" : "75020"
  },
  {
    "title" : "Jardin d'enfants avenue d'Italie",
    "id" : "1839",
    "street" : "170 avenue d'Italie ",
    "coordinates" : [
      2.35886,
      48.821033
    ],
    "zipcode" : "75013"
  },
  {
    "title" : "Jardin d'enfants du Buisson Saint-Louis",
    "id" : "1849",
    "street" : "17 bis passage du Buisson Saint-Louis ",
    "coordinates" : [
      2.37364,
      48.872631
    ],
    "zipcode" : "75010"
  },
  {
    "title" : "Jardin d'enfants du Retrait",
    "id" : "1868",
    "street" : "31 rue du Retrait ",
    "coordinates" : [
      2.393737,
      48.869057
    ],
    "zipcode" : "75020"
  },
  {
    "title" : "Jardin maternel La Maison Enchantée (Associatif)",
    "id" : "1899",
    "street" : "39 bis aveneue René Coty",
    "coordinates" : [
      2.33485129999997,
      48.8281606
    ],
    "zipcode" : "75014"
  },
  {
    "title" : "Jardin maternel Clavel (Associatif)",
    "id" : "1910",
    "street" : "6 bis rue Clavel",
    "coordinates" : [
      2.3852392,
      48.8745526
    ],
    "zipcode" : "75019"
  },
  {
    "title" : "Jardin maternel associatif Centre Israélite de Montmartre",
    "id" : "3636",
    "street" : "34 rue Lamarck ",
    "coordinates" : [
      2.343857,
      48.888836
    ],
    "zipcode" : "75018"
  },
  {
    "title" : "Jardin maternel municipal André Masson",
    "id" : "3795",
    "street" : "7 place André Masson ",
    "coordinates" : [
      2.354935,
      48.827808
    ],
    "zipcode" : "75013"
  },
  {
    "title" : "Jardin de la place du Bataillon-Français-de-l'ONU-en-Corée",
    "id" : "1205",
    "street" : "50 rue de l'Hôtel de Ville ",
    "coordinates" : [
      2.354987,
      48.85471
    ],
    "zipcode" : "75004"
  },
  {
    "title" : "Jardin de la Place Jean-Paul II",
    "id" : "1206",
    "street" : "1 place du Parvis Notre-Dame",
    "coordinates" : [
      2.34891849999997,
      48.8535903
    ],
    "zipcode" : "75004"
  },
  {
    "title" : "Jardin Madeleine-de-Scudéry",
    "id" : "1209",
    "street" : "1 rue des Oiseaux",
    "coordinates" : [
      2.36145069999998,
      48.8631237
    ],
    "zipcode" : "75003"
  },
  {
    "title" : "Jardin de l'Hôtel Lamoignon",
    "id" : "1210",
    "street" : "24 rue pavée",
    "coordinates" : [
      2.36181590000001,
      48.8572541
    ],
    "zipcode" : "75004"
  },
  {
    "title" : "Jardin Roger-Priou-Valjean",
    "id" : "1211",
    "street" : "10 rue du Figuier ",
    "coordinates" : [
      2.359062,
      48.853962
    ],
    "zipcode" : "75004"
  },
  {
    "title" : "Jardin des Halles",
    "id" : "1765",
    "street" : "1 rue Pierre-Lescot ",
    "coordinates" : [
      2.345312,
      48.861595
    ],
    "zipcode" : "75001"
  },
  {
    "title" : "Promenade plantée",
    "id" : "1772",
    "street" : "290  avenue daumesnil",
    "coordinates" : [
      2.4060091,
      48.8357522
    ],
    "zipcode" : "75012"
  },
  {
    "title" : "Jardin Atlantique",
    "id" : "1775",
    "street" : "1 place des 5 Martyrs du Lycée Buffon ",
    "coordinates" : [
      2.318952,
      48.839695
    ],
    "zipcode" : "75015"
  },
  {
    "title" : "Jardin du Ranelagh",
    "id" : "1778",
    "street" : "1 avenue Prudhon ",
    "coordinates" : [
      2.269242,
      48.859066
    ],
    "zipcode" : "75016"
  },
  {
    "title" : "Jardin des serres d'Auteuil",
    "id" : "1780",
    "street" : "1 avenue Gordon-Bennett",
    "coordinates" : [
      2.25101089999998,
      48.8461702
    ],
    "zipcode" : "75016"
  },
  {
    "title" : "Jardin d'acclimatation",
    "id" : "1781",
    "street" : "45 avenue du Mahatma Gandhi",
    "coordinates" : [
      2.2630511,
      48.8760934
    ],
    "zipcode" : "75016"
  },
  {
    "title" : "Jardin du Port de l'Arsenal",
    "id" : "1783",
    "street" : "53 boulevard de la Bastille ",
    "coordinates" : [
      2.368465,
      48.850178
    ],
    "zipcode" : "75012"
  },
  {
    "title" : "Jardin Tino-Rossi",
    "id" : "1786",
    "street" : "2 quai Saint-Bernard",
    "coordinates" : [
      2.36094419999995,
      48.846853
    ],
    "zipcode" : "75005"
  },
  {
    "title" : "Jardins du Trocadéro",
    "id" : "1789",
    "street" : "11place du Trocadéro ",
    "coordinates" : [
      2.291603,
      48.861755
    ],
    "zipcode" : "75016"
  },
  {
    "title" : "Jardin du Luxembourg",
    "id" : "1793",
    "street" : "2 rue Auguste Comte",
    "coordinates" : [
      2.33829519999995,
      48.8441127
    ],
    "zipcode" : "75006"
  },
  {
    "title" : "Jardin des Tuileries",
    "id" : "1795",
    "street" : "113 rue de Rivoli ",
    "coordinates" : [
      2.328243,
      48.863022
    ],
    "zipcode" : "75001"
  },
  {
    "title" : "Jardin du Palais Royal",
    "id" : "1797",
    "street" : "2 place Colette ",
    "coordinates" : [
      2.337728,
      48.864716
    ],
    "zipcode" : "75001"
  },
  {
    "title" : "Jardin des Plantes",
    "id" : "1799",
    "street" : "2 rue Buffon",
    "coordinates" : [
      2.36396009999999,
      48.8433178
    ],
    "zipcode" : "75005"
  },
  {
    "title" : "Jardin d'Agronomie Tropicale",
    "id" : "1813",
    "street" : "45 bis, avenue de la Belle-Gabrielle",
    "coordinates" : [
      2.46643410000001,
      48.8326204
    ],
    "zipcode" : "75012"
  },
  {
    "title" : "Jardins de l'avenue Foch",
    "id" : "1814",
    "street" : "Avenue Foch ",
    "coordinates" : [
      2.289184,
      48.873718
    ],
    "zipcode" : "75016"
  },
  {
    "title" : "Square Danielle-Mitterrand (ex-Jardin de la rue de Bièvre)",
    "id" : "2439",
    "street" : "20 rue de Bievre",
    "coordinates" : [
      2.35021740000002,
      48.8505534
    ],
    "zipcode" : "75005"
  },
  {
    "title" : "Jardin du Port de la Tournelle",
    "id" : "2440",
    "street" : "4 quai de la tournelle",
    "coordinates" : [
      2.353171,
      48.850479
    ],
    "zipcode" : "75005"
  },
  {
    "title" : "Jardin médiéval du musée de Cluny",
    "id" : "2443",
    "street" : "24 rue du Sommerard ",
    "coordinates" : [
      2.344593,
      48.851013
    ],
    "zipcode" : "75005"
  },
  {
    "title" : "Jardin de l'Hôtel de Sens",
    "id" : "2449",
    "street" : "7 rue des Nonnains d'Hyères ",
    "coordinates" : [
      2.358157,
      48.85376
    ],
    "zipcode" : "75004"
  },
  {
    "title" : "Esplanade Gaston Monnerville",
    "id" : "2457",
    "street" : "7 place André Honnorat",
    "coordinates" : [
      2.3375982,
      48.8442725
    ],
    "zipcode" : "75006"
  },
  {
    "title" : "Jardin de la Mairie du VIIIème",
    "id" : "2460",
    "street" : "13 rue du Général Foy",
    "coordinates" : [
      2.31817649999994,
      48.8778539
    ],
    "zipcode" : "75008"
  },
  {
    "title" : "Jardin Catherine-Labouré",
    "id" : "2465",
    "street" : "29 rue Babylone",
    "coordinates" : [
      2.32050490000006,
      48.8516646
    ],
    "zipcode" : "75007"
  },
  {
    "title" : "Jardins des Champs-Elysées",
    "id" : "2471",
    "street" : "10 avenue des Champs Elysées ",
    "coordinates" : [
      2.316253,
      48.868362
    ],
    "zipcode" : "75008"
  },
  {
    "title" : "Jardin de l'Intendant",
    "id" : "2475",
    "street" : "53 boulevard de la Tour-Maubourg ",
    "coordinates" : [
      2.309623,
      48.854599
    ],
    "zipcode" : "75007"
  },
  {
    "title" : "Jardin de l'Abondance",
    "id" : "2476",
    "street" : "2 avenue de Tourville ",
    "coordinates" : [
      2.311512,
      48.853569
    ],
    "zipcode" : "75007"
  },
  {
    "title" : "Promenade du Cours Albert 1er",
    "id" : "2490",
    "street" : "17 cours Albert 1er ",
    "coordinates" : [
      2.306006,
      48.864517
    ],
    "zipcode" : "75008"
  },
  {
    "title" : "Promenade du Cours de la Reine",
    "id" : "2491",
    "street" : "1 place de la Reine Astrid ",
    "coordinates" : [
      2.303208,
      48.864773
    ],
    "zipcode" : "75008"
  },
  {
    "title" : "Jardin d'Alleray-Procession",
    "id" : "2499",
    "street" : "79 rue d'Alleray ",
    "coordinates" : [
      2.308165,
      48.836365
    ],
    "zipcode" : "75015"
  },
  {
    "title" : "Jardin d'Alleray",
    "id" : "2502",
    "street" : "62 rue d'Alleray ",
    "coordinates" : [
      2.305208,
      48.836544
    ],
    "zipcode" : "75015"
  },
  {
    "title" : "Square d'Alleray - La Quintinie",
    "id" : "2503",
    "street" : "28 rue des Favorites ",
    "coordinates" : [
      2.304388,
      48.837257
    ],
    "zipcode" : "75015"
  },
  {
    "title" : "Jardin du Moulin-de-la-Pointe",
    "id" : "2507",
    "street" : "22 boulevard kellermann",
    "coordinates" : [
      2.35643900000002,
      48.819581
    ],
    "zipcode" : "75013"
  },
  {
    "title" : "Jardin de la Dalle d'Ivry",
    "id" : "2518",
    "street" : "9 rue de la pointe d'Ivry",
    "coordinates" : [
      2.3649772,
      48.8229151
    ],
    "zipcode" : "75013"
  },
  {
    "title" : "Jardin de l'Observatoire de Paris",
    "id" : "2520",
    "street" : "61 avenue de l'Observatoire ",
    "coordinates" : [
      2.336494,
      48.835396
    ],
    "zipcode" : "75014"
  },
  {
    "title" : "Square Duranton",
    "id" : "2534",
    "street" : "1 rue Duranton ",
    "coordinates" : [
      2.284557,
      48.841076
    ],
    "zipcode" : "75015"
  },
  {
    "title" : "Jardin des Deux-Moulins",
    "id" : "2535",
    "street" : "78 avenue Edison ",
    "coordinates" : [
      2.360672,
      48.829224
    ],
    "zipcode" : "75013"
  },
  {
    "title" : "Square Félix Faure",
    "id" : "2536",
    "street" : "167 rue de Lourmel ",
    "coordinates" : [
      2.28262,
      48.839314
    ],
    "zipcode" : "75015"
  },
  {
    "title" : "Jardin du Grand Pavois",
    "id" : "2537",
    "street" : "187 rue de Lourmel ",
    "coordinates" : [
      2.281216,
      48.837185
    ],
    "zipcode" : "75015"
  },
  {
    "title" : "Jardin de la Poterne des Peupliers",
    "id" : "2541",
    "street" : "34 boulevard Kellermann",
    "coordinates" : [
      2.35526770000001,
      48.8210553
    ],
    "zipcode" : "75013"
  },
  {
    "title" : "Jardin des Colonnes",
    "id" : "2545",
    "street" : "5 place de l'Abbé Jean Lebeuf ",
    "coordinates" : [
      2.318954,
      48.836159
    ],
    "zipcode" : "75014"
  },
  {
    "title" : "Jardin des Cévennes",
    "id" : "2546",
    "street" : "3 rue Cauchy ",
    "coordinates" : [
      2.27549,
      48.843189
    ],
    "zipcode" : "75015"
  },
  {
    "title" : "Jardin du Cloître",
    "id" : "2547",
    "street" : "30 rue Guilleminot ",
    "coordinates" : [
      2.317655,
      48.835732
    ],
    "zipcode" : "75014"
  },
  {
    "title" : "Jardin Michelet",
    "id" : "2550",
    "street" : "233 ter rue de Tolbiac",
    "coordinates" : [
      2.34357420000003,
      48.826101
    ],
    "zipcode" : "75013"
  },
  {
    "title" : "Square de l'Abbé Lemire",
    "id" : "2551",
    "street" : "78 rue Vercingetorix ",
    "coordinates" : [
      2.315315,
      48.835415
    ],
    "zipcode" : "75014"
  },
  {
    "title" : "Square du Père-Plumier",
    "id" : "2553",
    "street" : "112 rue Vercingetorix ",
    "coordinates" : [
      2.313651,
      48.834366
    ],
    "zipcode" : "75014"
  },
  {
    "title" : "Jardin Jean-Claude-Nicolas-Forestier",
    "id" : "2554",
    "street" : "12 rue Thomire",
    "coordinates" : [
      2.34860679999997,
      48.8191771
    ],
    "zipcode" : "75013"
  },
  {
    "title" : "Jardin du Moulin de la Vierge",
    "id" : "2557",
    "street" : "125 rue Vercingetorix ",
    "coordinates" : [
      2.312586,
      48.833561
    ],
    "zipcode" : "75014"
  },
  {
    "title" : "Jardin Georges-Duhamel",
    "id" : "2559",
    "street" : "5 rue Choderlos de Laclos ",
    "coordinates" : [
      2.378626,
      48.832294
    ],
    "zipcode" : "75013"
  },
  {
    "title" : "Jardin James-Joyce",
    "id" : "2560",
    "street" : "7 rue Georges Balanchine ",
    "coordinates" : [
      2.373601,
      48.836346
    ],
    "zipcode" : "75013"
  },
  {
    "title" : "Jardin Berthe-Morisot",
    "id" : "2561",
    "street" : "34 rue du Dessous-des-Berges",
    "coordinates" : [
      2.37479810000002,
      48.825786
    ],
    "zipcode" : "75013"
  },
  {
    "title" : "Jardin Juan-Miro",
    "id" : "2563",
    "street" : "40 rue Gandon",
    "coordinates" : [
      2.36159199999997,
      48.8199247
    ],
    "zipcode" : "75013"
  },
  {
    "title" : "Jardin du Monument aux Mères Françaises",
    "id" : "2564",
    "street" : "21 boulevard Kellermann ",
    "coordinates" : [
      2.355835,
      48.820534
    ],
    "zipcode" : "75013"
  },
  {
    "title" : "Square de la Montgolfière",
    "id" : "2566",
    "street" : "42 rue du Moulinet",
    "coordinates" : [
      2.35390510000002,
      48.8267897
    ],
    "zipcode" : "75013"
  },
  {
    "title" : "Jardin de la place Raymond-Losserand",
    "id" : "2570",
    "street" : "145 rue Raymond Losserand",
    "coordinates" : [
      2.31249769999999,
      48.8310269
    ],
    "zipcode" : "75014"
  },
  {
    "title" : "Jardin Brassai",
    "id" : "2571",
    "street" : "2 rue Eugène Atget ",
    "coordinates" : [
      2.349685,
      48.828724
    ],
    "zipcode" : "75013"
  },
  {
    "title" : "Jardin de Reuilly",
    "id" : "2573",
    "street" : "15 rue Albinoni",
    "coordinates" : [
      2.38878739999996,
      48.8425195
    ],
    "zipcode" : "75012"
  },
  {
    "title" : "Jardinet de la rue de l'Amiral-Mouchez",
    "id" : "2582",
    "street" : "74 rue de l'Amiral Mouchez ",
    "coordinates" : [
      2.34236,
      48.821274
    ],
    "zipcode" : "75014"
  },
  {
    "title" : "Jardin du boulevard de Picpus",
    "id" : "2584",
    "street" : "55 boulevard de Picpus",
    "coordinates" : [
      2.40124539999999,
      48.8456687
    ],
    "zipcode" : "75012"
  },
  {
    "title" : "Jardin de la place Jules-Hénaffe",
    "id" : "2586",
    "street" : "1 place Jules Henaffe ",
    "coordinates" : [
      2.331239,
      48.823883
    ],
    "zipcode" : "75014"
  },
  {
    "title" : "Jardin Ilan Halimi",
    "id" : "2595",
    "street" : "54 rue de Fecamp ",
    "coordinates" : [
      2.401005,
      48.836529
    ],
    "zipcode" : "75012"
  },
  {
    "title" : "Square Paturle",
    "id" : "2596",
    "street" : "1 rue Paturle ",
    "coordinates" : [
      2.306855,
      48.82893
    ],
    "zipcode" : "75014"
  },
  {
    "title" : "Jardin de la gare de Reuilly",
    "id" : "2602",
    "street" : "6 rue Paul Dukas ",
    "coordinates" : [
      2.3921,
      48.841187
    ],
    "zipcode" : "75012"
  },
  {
    "title" : "Square Eugène Thomas",
    "id" : "2603",
    "street" : "1 rue Bignon ",
    "coordinates" : [
      2.388413,
      48.840515
    ],
    "zipcode" : "75012"
  },
  {
    "title" : "Jardin Alexandre-Soljenitsyne",
    "id" : "2607",
    "street" : "place de la porte maillot",
    "coordinates" : [
      2.28237339999998,
      48.8778092
    ],
    "zipcode" : "75016"
  },
  {
    "title" : "Square du Général Anselin",
    "id" : "2611",
    "street" : "1 avenue de Pologne ",
    "coordinates" : [
      2.273163,
      48.869175
    ],
    "zipcode" : "75016"
  },
  {
    "title" : "Square Jan Doornik",
    "id" : "2612",
    "street" : "27 boulevard Flandrin ",
    "coordinates" : [
      2.273696,
      48.86797
    ],
    "zipcode" : "75016"
  },
  {
    "title" : "Jardin de la place Rodin",
    "id" : "2617",
    "street" : "1 avenue Adrien Hebrard ",
    "coordinates" : [
      2.270786,
      48.85334
    ],
    "zipcode" : "75016"
  },
  {
    "title" : "Jardin de la maison des orphelins apprentis d'Auteuil",
    "id" : "2618",
    "street" : " 1 avenue Leopold II ",
    "coordinates" : [
      2.271987,
      48.850933
    ],
    "zipcode" : "75016"
  },
  {
    "title" : "Parc de Passy",
    "id" : "2625",
    "street" : "32 avenue du Président Kennedy",
    "coordinates" : [
      2.28520579999997,
      48.8558499
    ],
    "zipcode" : "75016"
  },
  {
    "title" : "Square du Caporal Peugeot",
    "id" : "2632",
    "street" : "2 rue du Caporal Peugeot ",
    "coordinates" : [
      2.289381,
      48.887287
    ],
    "zipcode" : "75017"
  },
  {
    "title" : "Square Jacques Audiberti",
    "id" : "2636",
    "street" : "25 avenue de la porte de Villiers",
    "coordinates" : [
      2.28490280000005,
      48.8852268
    ],
    "zipcode" : "75017"
  },
  {
    "title" : "Jardin Lily Laskine",
    "id" : "2639",
    "street" : "35 rue Jacques Ibert",
    "coordinates" : [
      2.28780940000001,
      48.8875549
    ],
    "zipcode" : "75017"
  },
  {
    "title" : "Square Lucien Fontanarosa",
    "id" : "2640",
    "street" : "29 rue Cino Del Duca",
    "coordinates" : [
      2.28235859999995,
      48.8838685
    ],
    "zipcode" : "75017"
  },
  {
    "title" : "Jardin de la rue Ginette Neveu",
    "id" : "2654",
    "street" : "21 rue Ginette Neveu",
    "coordinates" : [
      2.34506250000004,
      48.9005113
    ],
    "zipcode" : "75018"
  },
  {
    "title" : "Jardin de lîlot Riquet",
    "id" : "2657",
    "street" : "2 rue du docteur Lamaze ",
    "coordinates" : [
      2.373712,
      48.88982
    ],
    "zipcode" : "75019"
  },
  {
    "title" : "Square du quai de la Seine",
    "id" : "2662",
    "street" : "16 quai de Seine",
    "coordinates" : [
      2.37186129999998,
      48.8853328
    ],
    "zipcode" : "75019"
  },
  {
    "title" : "Jardin de la rue Rébeval",
    "id" : "2666",
    "street" : "13-15 rue Rebeval",
    "coordinates" : [
      2.37741200000005,
      48.8742148
    ],
    "zipcode" : "75019"
  },
  {
    "title" : "Jardin de l'îlot Rébeval",
    "id" : "2667",
    "street" : "5 rue de Belleville, 10-12 rue de Rébeval, 7-9 rue Jules Romain, 8-10 boulevard de la Villette",
    "coordinates" : [
      2.37606059999996,
      48.8729906
    ],
    "zipcode" : "75019"
  },
  {
    "title" : "Jardin Compans",
    "id" : "2673",
    "street" : "39 rue Compans ",
    "coordinates" : [
      2.393349,
      48.877991
    ],
    "zipcode" : "75019"
  },
  {
    "title" : "Jardin du Regard de la Lanterne",
    "id" : "2677",
    "street" : "3 rue Augustin Thierry ",
    "coordinates" : [
      2.394438,
      48.87608
    ],
    "zipcode" : "75019"
  },
  {
    "title" : "Jardin Notre-Dame-de-Fatima",
    "id" : "2680",
    "street" : "44 boulevard Serurier ",
    "coordinates" : [
      2.402616,
      48.878525
    ],
    "zipcode" : "75019"
  },
  {
    "title" : "Jardin Rachmaninov",
    "id" : "2681",
    "street" : "16 rue Tristan Tzara ",
    "coordinates" : [
      2.3649,
      48.894905
    ],
    "zipcode" : "75018"
  },
  {
    "title" : "Square Claude-Bernard",
    "id" : "2682",
    "street" : "176 boulevard Macdonald, 4 rue Jacques Duchesne",
    "coordinates" : [
      2.37408490000007,
      48.8991661
    ],
    "zipcode" : "75019"
  },
  {
    "title" : "Jardin de Pali-Kao",
    "id" : "2689",
    "street" : "38 rue de Pali Kao ",
    "coordinates" : [
      2.38281,
      48.87077
    ],
    "zipcode" : "75020"
  },
  {
    "title" : "Jardin de la Gare de Charonne",
    "id" : "2693",
    "street" : "60 rue du Volga",
    "coordinates" : [
      2.40892370000006,
      48.8527635
    ],
    "zipcode" : "75020"
  },
  {
    "title" : "Jardin Maronites-Pressoir",
    "id" : "2696",
    "street" : "1 rue du Pressoir ",
    "coordinates" : [
      2.384014,
      48.868279
    ],
    "zipcode" : "75020"
  },
  {
    "title" : "Clos Montmartre",
    "id" : "2697",
    "street" : "14 rue des Saules ",
    "coordinates" : [
      2.33979,
      48.888283
    ],
    "zipcode" : "75018"
  },
  {
    "title" : "Jardin des Arènes de Montmartre",
    "id" : "2699",
    "street" : "25  rue chappe",
    "coordinates" : [
      2.341839,
      48.885414
    ],
    "zipcode" : "75018"
  },
  {
    "title" : "Jardin Naturel",
    "id" : "2703",
    "street" : "120 rue de la Réunion",
    "coordinates" : [
      2.39867589999994,
      48.8583299
    ],
    "zipcode" : "75020"
  },
  {
    "title" : "Jardin des Orteaux",
    "id" : "2708",
    "street" : "51 rue de la Croix Saint-Simon",
    "coordinates" : [
      2.40949330000001,
      48.8552677
    ],
    "zipcode" : "75020"
  },
  {
    "title" : "Jardin Casque d'Or",
    "id" : "2713",
    "street" : "14 rue Michel de Bourges ",
    "coordinates" : [
      2.400872,
      48.85445
    ],
    "zipcode" : "75020"
  },
  {
    "title" : "Jardin de la Justice",
    "id" : "2719",
    "street" : "60 rue de la Justice ",
    "coordinates" : [
      2.408699,
      48.868473
    ],
    "zipcode" : "75020"
  },
  {
    "title" : "Jardin Pierre Joseph Redouté",
    "id" : "2728",
    "street" : "132 bis rue de Charonne ",
    "coordinates" : [
      2.384015,
      48.854431
    ],
    "zipcode" : "75011"
  },
  {
    "title" : "Square Colbert",
    "id" : "2729",
    "street" : "159 rue de Charonne ",
    "coordinates" : [
      2.389808,
      48.85556
    ],
    "zipcode" : "75011"
  },
  {
    "title" : "Jardin Emile Gallé",
    "id" : "2730",
    "street" : "32 rue Neuve des Boulets ",
    "coordinates" : [
      2.390272,
      48.854252
    ],
    "zipcode" : "75011"
  },
  {
    "title" : "Jardin Damia",
    "id" : "2734",
    "street" : "24 rue Robert et Sonia Delaunay",
    "coordinates" : [
      2.39462579999997,
      48.8552261
    ],
    "zipcode" : "75011"
  },
  {
    "title" : "Jardin de la rue de Châtillon",
    "id" : "2735",
    "street" : "18 rue de Châtillon ",
    "coordinates" : [
      2.323035,
      48.827606
    ],
    "zipcode" : "75014"
  },
  {
    "title" : "Jardin Anne-Frank",
    "id" : "2737",
    "street" : "14 impasse Berthaud ",
    "coordinates" : [
      2.354792,
      48.861626
    ],
    "zipcode" : "75003"
  },
  {
    "title" : "Esplanade Habib-Bourguiba",
    "id" : "2738",
    "street" : "Accès : quai d’Orsay, port du Gros-Caillou",
    "coordinates" : [
      2.30389749999995,
      48.8583002
    ],
    "zipcode" : "75007"
  },
  {
    "title" : "Jardin Vercingétorix-Brune",
    "id" : "2739",
    "street" : "boulevard Brune ",
    "coordinates" : [
      2.305196,
      48.827778
    ],
    "zipcode" : "75014"
  },
  {
    "title" : "Jardins d'immeubles de la Porte de Vincennes (partie Nord)",
    "id" : "2741",
    "street" : "Rue Cristino Garcia ",
    "coordinates" : [
      2.41434,
      48.849865
    ],
    "zipcode" : "75020"
  },
  {
    "title" : "Jardins d'immeubles de la Porte de Vincennes (partie Sud)",
    "id" : "2743",
    "street" : "Rue Cristino Garcia ",
    "coordinates" : [
      2.41434,
      48.849865
    ],
    "zipcode" : "75020"
  },
  {
    "title" : "Jardin de la ZAC Réunion (ex-mail Michel de Bourges)",
    "id" : "2744",
    "street" : "rue Michel de Bourges ",
    "coordinates" : [
      2.401017,
      48.854366
    ],
    "zipcode" : "75020"
  },
  {
    "title" : "Jardin des Couronnes",
    "id" : "2748",
    "street" : "rue des Couronnes ",
    "coordinates" : [
      2.385499,
      48.870293
    ],
    "zipcode" : "75020"
  },
  {
    "title" : "Jardins d'Eole",
    "id" : "2761",
    "street" : "20 rue du département",
    "coordinates" : [
      2.36582210000006,
      48.8855567
    ],
    "zipcode" : "75018"
  },
  {
    "title" : "Jardin de l'Eglise Sainte-Jeanne-de-Chantal",
    "id" : "2771",
    "street" : "place de la Porte de Saint-Cloud ",
    "coordinates" : [
      2.256341,
      48.838287
    ],
    "zipcode" : "75016"
  },
  {
    "title" : "Bois de Boulogne",
    "id" : "2779",
    "street" : "Bois de Boulogne",
    "coordinates" : [
      2.248196,
      48.863571
    ],
    "zipcode" : "75016"
  },
  {
    "title" : "Pré Catelan et jardin Shakespeare",
    "id" : "2780",
    "street" : "Pré catelan",
    "coordinates" : [
      2.25483399999996,
      48.866304
    ],
    "zipcode" : "75016"
  },
  {
    "title" : "Jardin d'enfants de la rue du Simplon",
    "id" : "2782",
    "street" : "36 rue de Simplon",
    "coordinates" : [
      2.34930899999995,
      48.8940687
    ],
    "zipcode" : "75018"
  },
  {
    "title" : "Jardin de l’Ilot C3",
    "id" : "2816",
    "street" : "boulevard de Reims ",
    "coordinates" : [
      2.297965,
      48.889969
    ],
    "zipcode" : "75017"
  },
  {
    "title" : "Promenade Bernard-Lafay",
    "id" : "2818",
    "street" : "rue de Saussure ",
    "coordinates" : [
      2.293403,
      48.888916
    ],
    "zipcode" : "75017"
  },
  {
    "title" : "Jardin de la rue du Colonel Manhès",
    "id" : "2819",
    "street" : "12 Rue du Colonel Manhès",
    "coordinates" : [
      2.32100860000003,
      48.8955215
    ],
    "zipcode" : "75017"
  },
  {
    "title" : "Jardin Claire Motte",
    "id" : "2820",
    "street" : "rue Marguerite Long, rue Albert Roussel",
    "coordinates" : [
      2.30526469999995,
      48.8920656
    ],
    "zipcode" : "75017"
  },
  {
    "title" : "Promenade Pereire",
    "id" : "2821",
    "street" : "boulevard Pereire ",
    "coordinates" : [
      2.296672,
      48.884491
    ],
    "zipcode" : "75017"
  },
  {
    "title" : "Pelouses de la place du Général Catroux",
    "id" : "2822",
    "street" : "place du Général-Catroux ",
    "coordinates" : [
      2.310408,
      48.883076
    ],
    "zipcode" : "75017"
  },
  {
    "title" : "Jardin Pierre-Seghers",
    "id" : "2824",
    "street" : "rue de Ménilmontant ",
    "coordinates" : [
      2.391428,
      48.869102
    ],
    "zipcode" : "75020"
  },
  {
    "title" : "Jardin de l'Hôtel Salé - Léonor-Fini",
    "id" : "2826",
    "street" : "101ter, rue des Coutures Saint-Gervais ",
    "coordinates" : [
      2.361984,
      48.860336
    ],
    "zipcode" : "75003"
  },
  {
    "title" : "Jardin du Musée Carnavalet",
    "id" : "2827",
    "street" : "Entre la rue des Francs-Bourgeois  et le 23 rue de Sévigné ",
    "coordinates" : [
      2.362286,
      48.857441
    ],
    "zipcode" : "75003"
  },
  {
    "title" : "Jardin Francs-Bourgeois-Rosiers",
    "id" : "2828",
    "street" : "35-37 rue des Francs-Bourgeois",
    "coordinates" : [
      2.360427,
      48.857845
    ],
    "zipcode" : "75004"
  },
  {
    "title" : "Promenade de l'allée du Séminaire - Jean-Jacques-Olier",
    "id" : "2833",
    "street" : "  rue Bonaparte  rue de Vaugirard",
    "coordinates" : [
      2.332709,
      48.849255
    ],
    "zipcode" : "75006"
  },
  {
    "title" : "Jardin des grands explorateurs Marco Polo et Cavelier-de-la-Salle",
    "id" : "2834",
    "street" : "avenue de l’Observatoire",
    "coordinates" : [
      2.33633310000005,
      48.8419574
    ],
    "zipcode" : "75006"
  },
  {
    "title" : "Jardin de la rue Visconti",
    "id" : "2835",
    "street" : "8, 10, 12 rue Visconti",
    "coordinates" : [
      2.33559130000003,
      48.8557947
    ],
    "zipcode" : "75006"
  },
  {
    "title" : "Square Richard Lenoir",
    "id" : "2837",
    "street" : "35 boulevard Richard-Lenoir",
    "coordinates" : [
      2.37091740000005,
      48.8580233
    ],
    "zipcode" : "75011"
  },
  {
    "title" : "Jardin de la Folie Titon",
    "id" : "2842",
    "street" : "rue de Chanzy",
    "coordinates" : [
      2.385354,
      48.852768
    ],
    "zipcode" : "75011"
  },
  {
    "title" : "Square Frot Phalsbourg",
    "id" : "2845",
    "street" : "Cité Phalsbourg ",
    "coordinates" : [
      2.385594,
      48.855797
    ],
    "zipcode" : "75011"
  },
  {
    "title" : "Jardin d'immeubles du boulevard Carnot",
    "id" : "2847",
    "street" : "boulevard Carnot ",
    "coordinates" : [
      2.412995,
      48.843731
    ],
    "zipcode" : "75012"
  },
  {
    "title" : "Jardin Debergue - Rendez-vous",
    "id" : "2848",
    "street" : "30, rue du Rendez-Vous",
    "coordinates" : [
      2.40360369999996,
      48.8455886
    ],
    "zipcode" : "75012"
  },
  {
    "title" : "Jardin de la Fondation Napoléon",
    "id" : "2849",
    "street" : "2 rue de Picpus ",
    "coordinates" : [
      2.392015,
      48.848969
    ],
    "zipcode" : "75012"
  },
  {
    "title" : "Jardin d'immeuble Choisy-Caillaux",
    "id" : "2850",
    "street" : "1 rue Caillaux",
    "coordinates" : [
      2.36240640000005,
      48.8229836
    ],
    "zipcode" : "75013"
  },
  {
    "title" : "Jardin d'immeubles Rosny-Ainé",
    "id" : "2851",
    "street" : "1 rue Paul Bourget",
    "coordinates" : [
      2.35902980000003,
      48.8180694
    ],
    "zipcode" : "75013"
  },
  {
    "title" : "Square Samuel-Beckett",
    "id" : "2852",
    "street" : "47 rue Gandon",
    "coordinates" : [
      2.36197830000003,
      48.8193463
    ],
    "zipcode" : "75013"
  },
  {
    "title" : "Jardin Baudricourt",
    "id" : "2853",
    "street" : "14 rue de la Pointe d'Ivry",
    "coordinates" : [
      2.36475340000004,
      48.8228325
    ],
    "zipcode" : "75013"
  },
  {
    "title" : "Jardin d'immeubles du boulevard de l’Hôpital",
    "id" : "2854",
    "street" : "18 rue Watteau",
    "coordinates" : [
      2.35703960000001,
      48.8347907
    ],
    "zipcode" : "75013"
  },
  {
    "title" : "Jardin Biopark",
    "id" : "2855",
    "street" : "11rue Watt",
    "coordinates" : [
      2.38255330000004,
      48.8281326
    ],
    "zipcode" : "75013"
  },
  {
    "title" : "Jardin Paul-Nizan",
    "id" : "2856",
    "street" : "9 rue de l’Industrie ",
    "coordinates" : [
      2.357105,
      48.822449
    ],
    "zipcode" : "75013"
  },
  {
    "title" : "Jardin de la place Louis-Armstrong",
    "id" : "2857",
    "street" : "2 place Louis Armstrong",
    "coordinates" : [
      2.36010859999999,
      48.8359801
    ],
    "zipcode" : "75013"
  },
  {
    "title" : "Promenade plantée Arthur-Rimbaud",
    "id" : "2860",
    "street" : "56 quai François Mauriac",
    "coordinates" : [
      2.3773645,
      48.8341088
    ],
    "zipcode" : "75013"
  },
  {
    "title" : "Jardin du Moulin des Trois-Cornets",
    "id" : "2864",
    "street" : "3ter rue Raymond-Losserand ",
    "coordinates" : [
      2.322802,
      48.836594
    ],
    "zipcode" : "75014"
  },
  {
    "title" : "Jardin et aire de jeux de la ZAC Alésia-Montsouris",
    "id" : "2867",
    "street" : "avenue Reille ",
    "coordinates" : [
      2.336683,
      48.82428
    ],
    "zipcode" : "75014"
  },
  {
    "title" : "Jardin de la ZAC Didot",
    "id" : "2868",
    "street" : "rue Raymond-Losserand ",
    "coordinates" : [
      2.313683,
      48.831512
    ],
    "zipcode" : "75014"
  },
  {
    "title" : "Jardin d'immeubles Albert-Bartholomé",
    "id" : "2869",
    "street" : "avenue Albert-Bartholomé",
    "coordinates" : [
      2.29665350000005,
      48.8284637
    ],
    "zipcode" : "75015"
  },
  {
    "title" : "Promenade des quais de Grenelle et André Citroën",
    "id" : "2872",
    "street" : "quai André- Citroën  quai de Grenelle ",
    "coordinates" : [
      2.284572,
      48.851501
    ],
    "zipcode" : "75015"
  },
  {
    "title" : "Jardin des Mères et Grands-Mères de la Place de Mai (ex-jardin des 3 Marches)",
    "id" : "2873",
    "street" : "  angle rue Balard  quai André-Citroën  rond-point du pont Mirabeau",
    "coordinates" : [
      2.276705,
      48.845875
    ],
    "zipcode" : "75015"
  },
  {
    "title" : "Promenade du quai de Grenelle - square des Martyrs Juifs",
    "id" : "2874",
    "street" : "  quai de Grenelle  place des Martyrs Juifs du Vel-d’Hiv",
    "coordinates" : [
      2.287655,
      48.853657
    ],
    "zipcode" : "75015"
  },
  {
    "title" : "Allée des Cygnes",
    "id" : "2875",
    "street" : "pont de Grenelle  pont Bir-Hakeim ",
    "coordinates" : [
      2.286873,
      48.855061
    ],
    "zipcode" : "75015"
  },
  {
    "title" : "Jardin de l'Hôpital de Vaugirard",
    "id" : "2876",
    "street" : "rue de Vaugirard  rue Vaugelas ",
    "coordinates" : [
      2.292531,
      48.835354
    ],
    "zipcode" : "75015"
  },
  {
    "title" : "Jardin des abords du Petit-Palais",
    "id" : "3311",
    "street" : "avenue Winston-Churchill, Cour-la-Reine, avenue Charles-Girault ",
    "coordinates" : [
      2.314781,
      48.86665
    ],
    "zipcode" : "75008"
  },
  {
    "title" : "Jardin de la rue Noël-Ballay",
    "id" : "3313",
    "street" : "Rue Noël-Ballay   ",
    "coordinates" : [
      2.412015,
      48.847874
    ],
    "zipcode" : "75020"
  },
  {
    "title" : "Jardin de la Place Souham",
    "id" : "3722",
    "street" : "5 Place Souham",
    "coordinates" : [
      2.36785859999998,
      48.8290004
    ],
    "zipcode" : "75013"
  },
  {
    "title" : "Jardin du Carré de Baudouin",
    "id" : "3983",
    "street" : "119-121 rue de Ménilmontant ",
    "coordinates" : [
      2.393739,
      48.86974
    ],
    "zipcode" : "75020"
  },
  {
    "title" : "Jardins Abbé-Pierre - Grands-Moulins",
    "id" : "5044",
    "street" : "15 rue Thomas Mann",
    "coordinates" : [
      2.38052219999997,
      48.8301077
    ],
    "zipcode" : "75013"
  },
  {
    "title" : "Jardin Frédéric Dard (anc. square Cité Norvins)",
    "id" : "5051",
    "street" : "rue Norvins",
    "coordinates" : [
      2.337896,
      48.887489
    ],
    "zipcode" : "75018"
  },
  {
    "title" : "Jardin partagé d’insertion Georges-et-Maï-Politzer",
    "id" : "5052",
    "street" : "24-26 rue Georges et Maï Politzer",
    "coordinates" : [
      2.392072,
      48.841721
    ],
    "zipcode" : "75012"
  },
  {
    "title" : "Jardin des Archives Nationales",
    "id" : "6589",
    "street" : "87, rue Vieille-du-Temple",
    "coordinates" : [
      2.35991119999994,
      48.8595575
    ],
    "zipcode" : "75003"
  },
  {
    "title" : "Bois de Vincennes",
    "id" : "6598",
    "street" : "route de la Pyramide",
    "coordinates" : [
      2.45001579999996,
      48.8303772
    ],
    "zipcode" : "75012"
  },
  {
    "title" : "Jardin de la Cour de la Ferme Saint-Lazare",
    "id" : "8891",
    "street" : "Rue Léon Schwartzenberg",
    "coordinates" : [
      2.35437609999997,
      48.8758847
    ],
    "zipcode" : "75010"
  },
  {
    "title" : "Jardin de l'hôpital Saint-Louis",
    "id" : "8893",
    "street" : "1 avenue Claude Vellefaux",
    "coordinates" : [
      2.36978499999998,
      48.873494
    ],
    "zipcode" : "75010"
  },
  {
    "title" : "Jardin des Abbesses",
    "id" : "9925",
    "street" : "Passage des Abbesses",
    "coordinates" : [
      2.33818989999997,
      48.8851062
    ],
    "zipcode" : "75018"
  },
  {
    "title" : "Promenade avenue de Breteuil",
    "id" : "14917",
    "street" : "Avenue de Breteuil",
    "coordinates" : [
      2.31161229999998,
      48.8504628
    ],
    "zipcode" : "75007"
  },
  {
    "title" : "Ile de Bercy",
    "id" : "15389",
    "street" : "Ile de Bercy",
    "coordinates" : [
      2.41158399999995,
      48.831567
    ],
    "zipcode" : "75012"
  },
  {
    "title" : "Jardin Hector-Malot",
    "id" : "15557",
    "street" : "17 rue Hector -Malot",
    "coordinates" : [
      2.37691159999997,
      48.8467605
    ],
    "zipcode" : "75012"
  },
  {
    "title" : "Jardin de la Dalle Fougères",
    "id" : "15865",
    "street" : "Rue Noisy-Le-Sec",
    "coordinates" : [
      2.41290530000003,
      48.8727384
    ],
    "zipcode" : "75020"
  },
  {
    "title" : "Mail André-Bréchet",
    "id" : "15878",
    "street" : "38 rue André-Bréchet",
    "coordinates" : [
      2.32392900000002,
      48.8988861
    ],
    "zipcode" : "75017"
  },
  {
    "title" : "Jardin Hérold",
    "id" : "15993",
    "street" : "11 Rue Francis-Ponge",
    "coordinates" : [
      2.39454239999998,
      48.8822053
    ],
    "zipcode" : "75019"
  },
  {
    "title" : "Jardin de l'Hospice Debrousse",
    "id" : "16194",
    "street" : "148 rue de Bagnolet",
    "coordinates" : [
      2.40610200000003,
      48.8620981
    ],
    "zipcode" : "75020"
  },
  {
    "title" : "Jardin Serpollet-Davoud",
    "id" : "16195",
    "street" : "2 rue Serpollet",
    "coordinates" : [
      2.40944620000005,
      48.8606075
    ],
    "zipcode" : "75020"
  },
  {
    "title" : "Jardin du passage Stendhal",
    "id" : "16215",
    "street" : "7 passage Stendhal",
    "coordinates" : [
      2.40058220000003,
      48.8618237
    ],
    "zipcode" : "75020"
  },
  {
    "title" : "Jardin d'immeubles HLM Bagnolet",
    "id" : "16217",
    "street" : "Rue Henri-Duvernois",
    "coordinates" : [
      2.41102620000004,
      48.8626255
    ],
    "zipcode" : "75020"
  },
  {
    "title" : "Petite Ceinture du 16e (PC 16)",
    "id" : "16227",
    "street" : "36 boulevard de Beauséjour",
    "coordinates" : [
      2.26918309999996,
      48.8572003
    ],
    "zipcode" : "75016"
  },
  {
    "title" : "Jardin d'Isoré",
    "id" : "16249",
    "street" : "1 rue Bézout",
    "coordinates" : [
      2.33301059999997,
      48.8289796
    ],
    "zipcode" : "75014"
  },
  {
    "title" : "Square Brancion",
    "id" : "16252",
    "street" : "25 avenue de la Porte de Brancion",
    "coordinates" : [
      2.30058610000003,
      48.8263837
    ],
    "zipcode" : "75015"
  },
  {
    "title" : "Jardin Anna-Marly",
    "id" : "16422",
    "street" : "entrées avenue de la porte de Vanves ou rue Julia Bartet,  sur la dalle qui couvre le boulevard périphérique",
    "coordinates" : [
      2.32416669999998,
      48.8204354
    ],
    "zipcode" : "75014"
  },
  {
    "title" : "Parc des pelouses d'Auteuil",
    "id" : "16592",
    "street" : "Route d’Auteuil aux Lacs",
    "coordinates" : [
      2.25412679999999,
      48.8521299
    ],
    "zipcode" : "75016"
  },
  {
    "title" : "Jardins de l'Archipel des Berges de Seine - Niki de Saint Phalle",
    "id" : "16811",
    "street" : "Port du Gros Cailloux",
    "coordinates" : [
      2.29547179999997,
      48.8606434
    ],
    "zipcode" : "75007"
  },
  {
    "title" : "Jardin de l'Ecole Du Breuil",
    "id" : "16814",
    "street" : "Route de La Ferme",
    "coordinates" : [
      2.45726620000005,
      48.8235741
    ],
    "zipcode" : "75012"
  },
  {
    "title" : "Petite Ceinture du 15e (PC 15)",
    "id" : "16841",
    "street" : "Face au 99 rue Olivier de Serres",
    "coordinates" : [
      2.29325210000002,
      48.831776
    ],
    "zipcode" : "75015"
  },
  {
    "title" : "Esplanade de la Porte d'Aubervilliers - Place Charles-Tillon",
    "id" : "16852",
    "street" : "Rue Jean-Oberlé",
    "coordinates" : [
      2.37043790000007,
      48.8997244
    ],
    "zipcode" : "75019"
  },
  {
    "title" : "Jardin Curial",
    "id" : "16863",
    "street" : "92, 94 rue Curial",
    "coordinates" : [
      2.37566070000003,
      48.895732
    ],
    "zipcode" : "75019"
  },
  {
    "title" : "Jardin de l'Eglise Evangélique Luthérienne Saint-Jean-Denys-Bulher",
    "id" : "16893",
    "street" : "147 rue de Grenelle",
    "coordinates" : [
      2.30813390000003,
      48.857952
    ],
    "zipcode" : "75007"
  },
  {
    "title" : "Petite Ceinture du 12e (PC 12)",
    "id" : "16898",
    "street" : "21 rue Rottembourg",
    "coordinates" : [
      2.40683880000006,
      48.8385018
    ],
    "zipcode" : "75012"
  }
]