[
  {
    "street" : "227, Rue de Bercy",
    "zipcode" : "75012",
    "id" : "1",
    "city" : "PARIS",
    "address" : "227, Rue de Bercy 75012 PARIS France",
    "coordinates" : [
      2.3698429,
      48.8465037
    ],
    "title" : "DSTI"
  },
  {
    "street" : "116, Quai de Jemmapes",
    "zipcode" : "75010",
    "id" : "2",
    "city" : "PARIS",
    "address" : "116, Quai de Jemmapes 75010 PARIS France",
    "coordinates" : [
      2.3637445,
      48.8748413
    ],
    "title" : "Centre d'animation espace Jemmapes"
  },
  {
    "street" : "30, Rue du Faubourg Saint Antoine",
    "zipcode" : "75012",
    "id" : "3",
    "city" : "PARIS",
    "address" : "30, Rue du Faubourg Saint Antoine 75012 PARIS France",
    "coordinates" : [
      2.3715922,
      48.85247039999999
    ],
    "title" : "Activites artisanales et creation"
  },
  {
    "street" : "82, Rue Georges Laffont",
    "zipcode" : "75016",
    "id" : "4",
    "city" : "PARIS",
    "address" : "82, Rue Georges Laffont 75016 PARIS France",
    "coordinates" : [
      2.2549277,
      48.8350905
    ],
    "title" : "Stade Coubertin"
  },
  {
    "street" : "82, Rue Georges Laffont",
    "zipcode" : "75016",
    "id" : "5",
    "city" : "PARIS",
    "address" : "82, Rue Georges Laffont 75016 PARIS France",
    "coordinates" : [
      2.2549277,
      48.8350905
    ],
    "title" : "Stade Coubertin"
  },
  {
    "street" : "8, Rue Des Recollets",
    "zipcode" : "75010",
    "id" : "6",
    "city" : "PARIS",
    "address" : "8, Rue Des Recollets 75010 PARIS France",
    "coordinates" : [
      2.3606731,
      48.8748311
    ],
    "title" : "Jardin citymin"
  },
  {
    "street" : "4, Place De L'Hotel De Ville",
    "zipcode" : "75004",
    "id" : "7",
    "city" : "PARIS",
    "address" : "4, Place De L'Hotel De Ville 75004 PARIS France",
    "coordinates" : [
      2.3511114,
      48.8568203
    ],
    "title" : "Hotel De Ville (sous-sol et rdc)"
  },
  {
    "street" : "4, Place De L'Hotel De Ville",
    "zipcode" : "75004",
    "id" : "8",
    "city" : "PARIS",
    "address" : "4, Place De L'Hotel De Ville 75004 PARIS France",
    "coordinates" : [
      2.3511114,
      48.8568203
    ],
    "title" : "Hotel De Ville (1er etage)"
  },
  {
    "street" : "4, Place De L'Hotel De Ville",
    "zipcode" : "75004",
    "id" : "9",
    "city" : "PARIS",
    "address" : "4, Place De L'Hotel De Ville 75004 PARIS France",
    "coordinates" : [
      2.3511114,
      48.8568203
    ],
    "title" : "Hotel De Ville (2e etage)"
  },
  {
    "street" : "4, Place De L'Hotel De Ville",
    "zipcode" : "75004",
    "id" : "10",
    "city" : "PARIS",
    "address" : "4, Place De L'Hotel De Ville 75004 PARIS France",
    "coordinates" : [
      2.3511114,
      48.8568203
    ],
    "title" : "Hotel De Ville (3eme etage)"
  },
  {
    "street" : "4, Place De L'Hotel De Ville",
    "zipcode" : "75004",
    "id" : "11",
    "city" : "PARIS",
    "address" : "4, Place De L'Hotel De Ville 75004 PARIS France",
    "coordinates" : [
      2.3511114,
      48.8568203
    ],
    "title" : "Hotel De Ville (4e etage)"
  },
  {
    "street" : "9, Place De L'Hotel De Ville",
    "zipcode" : "75004",
    "id" : "12",
    "city" : "PARIS",
    "address" : "9, Place De L'Hotel De Ville 75004 PARIS France",
    "coordinates" : [
      2.3510539,
      48.857202
    ],
    "title" : "Parvis De L'Hotel De Ville"
  },
  {
    "street" : "4, Place De L'Hotel De Ville",
    "zipcode" : "75004",
    "id" : "13",
    "city" : "PARIS",
    "address" : "4, Place De L'Hotel De Ville 75004 PARIS France",
    "coordinates" : [
      2.3511114,
      48.8568203
    ],
    "title" : "Parvis De L'Hotel De Ville"
  },
  {
    "street" : "4, Place De L'Hotel De Ville",
    "zipcode" : "75004",
    "id" : "14",
    "city" : "PARIS",
    "address" : "4, Place De L'Hotel De Ville 75004 PARIS France",
    "coordinates" : [
      2.3511114,
      48.8568203
    ],
    "title" : "Parvis De L'Hotel De Ville"
  },
  {
    "street" : "13, Rue Henard",
    "zipcode" : "75012",
    "id" : "15",
    "city" : "PARIS",
    "address" : "13, Rue Henard 75012 PARIS France",
    "coordinates" : [
      2.3893109,
      48.842128
    ],
    "title" : "Allee Vivaldi"
  },
  {
    "street" : "35, Rue Victor Masse",
    "zipcode" : "75009",
    "id" : "16",
    "city" : "PARIS",
    "address" : "35, Rue Victor Masse 75009 PARIS France",
    "coordinates" : [
      2.3369849,
      48.8809842
    ],
    "title" : "Annexe Maison des Associations Du 09eme"
  },
  {
    "street" : "94, Boulevard Davout",
    "zipcode" : "75020",
    "id" : "17",
    "city" : "PARIS",
    "address" : "94, Boulevard Davout 75020 PARIS France",
    "coordinates" : [
      2.4101265,
      48.8565852
    ],
    "title" : "Antenne Jeune Davout"
  },
  {
    "street" : "43, Rue De L'Orillon",
    "zipcode" : "75011",
    "id" : "18",
    "city" : "PARIS",
    "address" : "43, Rue De L'Orillon 75011 PARIS France",
    "coordinates" : [
      2.3774393,
      48.8705776
    ],
    "title" : "Antenne Jeune Orillon"
  },
  {
    "street" : "18, Boulevard Serurier",
    "zipcode" : "75019",
    "id" : "19",
    "city" : "PARIS",
    "address" : "18, Boulevard Serurier 75019 PARIS France",
    "coordinates" : [
      2.4057552,
      48.8779189
    ],
    "title" : "Archives de Paris"
  },
  {
    "street" : "10, Rue De Fourcy",
    "zipcode" : "75004",
    "id" : "20",
    "city" : "PARIS",
    "address" : "10, Rue De Fourcy 75004 PARIS France",
    "coordinates" : [
      2.3593676,
      48.8549503
    ],
    "title" : "Atelier de Restauration Photographique"
  },
  {
    "street" : "5, Rue De Lobau",
    "zipcode" : "75004",
    "id" : "21",
    "city" : "PARIS",
    "address" : "5, Rue De Lobau 75004 PARIS France",
    "coordinates" : [
      2.3537378,
      48.8569428
    ],
    "title" : "Bibliothèque Administrative De La city De Paris"
  },
  {
    "street" : "164, Rue De Grenelle",
    "zipcode" : "75007",
    "id" : "22",
    "city" : "PARIS",
    "address" : "164, Rue De Grenelle 75007 PARIS France",
    "coordinates" : [
      2.3089386,
      48.85801430000001
    ],
    "title" : "Bibliothèque Amelie"
  },
  {
    "street" : "78, Boulevard Raspail",
    "zipcode" : "75006",
    "id" : "23",
    "city" : "PARIS",
    "address" : "78, Boulevard Raspail 75006 PARIS France",
    "coordinates" : [
      2.3276212,
      48.8480413
    ],
    "title" : "Bibliothèque Andre Malraux"
  },
  {
    "street" : "18, Rue Des Batignolles",
    "zipcode" : "75017",
    "id" : "24",
    "city" : "PARIS",
    "address" : "18, Rue Des Batignolles 75017 PARIS France",
    "coordinates" : [
      2.321781,
      48.884396
    ],
    "title" : "Bibliothèque Batignolles"
  },
  {
    "street" : "36, Rue Emeriau",
    "zipcode" : "75015",
    "id" : "25",
    "city" : "PARIS",
    "address" : "36, Rue Emeriau 75015 PARIS France",
    "coordinates" : [
      2.2864279,
      48.849937
    ],
    "title" : "Bibliothèque Beaugrenelle"
  },
  {
    "street" : "141, Avenue De Flandre",
    "zipcode" : "75019",
    "id" : "26",
    "city" : "PARIS",
    "address" : "141, Avenue De Flandre 75019 PARIS France",
    "coordinates" : [
      2.3791405,
      48.8926394
    ],
    "title" : "Bibliothèque Benjamin Rabier"
  },
  {
    "street" : "6, Rue Fourneyron",
    "zipcode" : "75017",
    "id" : "27",
    "city" : "PARIS",
    "address" : "6, Rue Fourneyron 75017 PARIS France",
    "coordinates" : [
      2.3196722,
      48.88977389999999
    ],
    "title" : "Bibliothèque Brochant"
  },
  {
    "street" : "15 Bis, Rue Buffon",
    "zipcode" : "75005",
    "id" : "28",
    "city" : "PARIS",
    "address" : "15 Bis, Rue Buffon 75005 PARIS France",
    "coordinates" : [
      2.3617143,
      48.8426427
    ],
    "title" : "Bibliothèque Buffon"
  },
  {
    "street" : "26, Rue Chaptal",
    "zipcode" : "75009",
    "id" : "29",
    "city" : "PARIS",
    "address" : "26, Rue Chaptal 75009 PARIS France",
    "coordinates" : [
      2.3323174,
      48.8811188
    ],
    "title" : "Bibliothèque Chaptal"
  },
  {
    "street" : "2, Passage Des Petits Peres",
    "zipcode" : "75002",
    "id" : "30",
    "city" : "PARIS",
    "address" : "2, Passage Des Petits Peres 75002 PARIS France",
    "coordinates" : [
      2.3405837,
      48.8664578
    ],
    "title" : "Bibliothèque Charlote Delbo"
  },
  {
    "street" : "72, Rue Du Faubourg Saint Martin",
    "zipcode" : "75010",
    "id" : "31",
    "city" : "PARIS",
    "address" : "72, Rue Du Faubourg Saint Martin 75010 PARIS France",
    "coordinates" : [
      2.3577497,
      48.87156239999999
    ],
    "title" : "Bibliothèque Chateau D'Eau"
  },
  {
    "street" : "29, Rue Hermel",
    "zipcode" : "75018",
    "id" : "32",
    "city" : "PARIS",
    "address" : "29, Rue Hermel 75018 PARIS France",
    "coordinates" : [
      2.3445981,
      48.8916982
    ],
    "title" : "Bibliothèque Clignancourt"
  },
  {
    "street" : "17 Ter, Avenue Beaucour",
    "zipcode" : "75008",
    "id" : "33",
    "city" : "PARIS",
    "address" : "17 Ter, Avenue Beaucour 75008 PARIS France",
    "coordinates" : [
      2.3029073,
      48.8776003
    ],
    "title" : "Bibliothèque Courcelles"
  },
  {
    "street" : "66, Rue Des Couronnes",
    "zipcode" : "75020",
    "id" : "34",
    "city" : "PARIS",
    "address" : "66, Rue Des Couronnes 75020 PARIS France",
    "coordinates" : [
      2.3854104,
      48.87009
    ],
    "title" : "Bibliothèque Couronnes"
  },
  {
    "street" : "42, Rue Petit",
    "zipcode" : "75019",
    "id" : "35",
    "city" : "PARIS",
    "address" : "42, Rue Petit 75019 PARIS France",
    "coordinates" : [
      2.382556,
      48.884864
    ],
    "title" : "Bibliothèque Crimee"
  },
  {
    "street" : "48, Rue Du Cardinal Lemoine",
    "zipcode" : "75005",
    "id" : "36",
    "city" : "PARIS",
    "address" : "48, Rue Du Cardinal Lemoine 75005 PARIS France",
    "coordinates" : [
      2.351184,
      48.8464112
    ],
    "title" : "Bibliothèque Des Litteratures Policier"
  },
  {
    "street" : "42, Rue Daumesnil",
    "zipcode" : "75012",
    "id" : "37",
    "city" : "PARIS",
    "address" : "42, Rue Daumesnil 75012 PARIS France",
    "coordinates" : [
      2.3775478,
      48.8459507
    ],
    "title" : "Bibliothèque Diderot"
  },
  {
    "street" : "11, Rue Drouot",
    "zipcode" : "75009",
    "id" : "38",
    "city" : "PARIS",
    "address" : "11, Rue Drouot 75009 PARIS France",
    "coordinates" : [
      2.3404807,
      48.8733638
    ],
    "title" : "Bibliothèque Drouot"
  },
  {
    "street" : "3, Rue De Lisbonne",
    "zipcode" : "75008",
    "id" : "39",
    "city" : "PARIS",
    "address" : "3, Rue De Lisbonne 75008 PARIS France",
    "coordinates" : [
      2.3175378,
      48.8777165
    ],
    "title" : "Bibliothèque Europe"
  },
  {
    "street" : "18, Rue Faidherbe",
    "zipcode" : "75011",
    "id" : "40",
    "city" : "PARIS",
    "address" : "18, Rue Faidherbe 75011 PARIS France",
    "coordinates" : [
      2.3839343,
      48.85160490000001
    ],
    "title" : "Bibliothèque Faidherbe"
  },
  {
    "street" : "6, Rue Fessart",
    "zipcode" : "75019",
    "id" : "41",
    "city" : "PARIS",
    "address" : "6, Rue Fessart 75019 PARIS France",
    "coordinates" : [
      2.3881649,
      48.8762949
    ],
    "title" : "Bibliothèque Fessart"
  },
  {
    "street" : "35, Rue De Flandre",
    "zipcode" : "75019",
    "id" : "42",
    "city" : "PARIS",
    "address" : "35, Rue De Flandre 75019 PARIS France",
    "coordinates" : [
      2.3713972,
      48.886805
    ],
    "title" : "Bibliothèque Flandre"
  },
  {
    "street" : "1, Rue Du Figuier",
    "zipcode" : "75004",
    "id" : "43",
    "city" : "PARIS",
    "address" : "1, Rue Du Figuier 75004 PARIS France",
    "coordinates" : [
      2.3591967,
      48.8534911
    ],
    "title" : "Bibliothèque Forney"
  },
  {
    "street" : "Forum Des Halles",
    "zipcode" : "75001",
    "id" : "44",
    "city" : "PARIS",
    "address" : "Forum Des Halles 75001 PARIS France",
    "coordinates" : [
      2.3478223,
      48.8615056
    ],
    "title" : "Bibliothèque Francois Truffaut"
  },
  {
    "street" : "81, Boulevard De La citytte",
    "zipcode" : "75010",
    "id" : "45",
    "city" : "PARIS",
    "address" : "81, Boulevard De La citytte 75010 PARIS France",
    "coordinates" : [
      2.3578528,
      48.8755083
    ],
    "title" : "Bibliothèque Francois Villon"
  },
  {
    "street" : "38, Rue Gassendi",
    "zipcode" : "75014",
    "id" : "46",
    "city" : "PARIS",
    "address" : "38, Rue Gassendi 75014 PARIS France",
    "coordinates" : [
      2.3251121,
      48.8326403
    ],
    "title" : "Bibliothèque Georges Brassens"
  },
  {
    "street" : "132, Rue De La Glaciere",
    "zipcode" : "75013",
    "id" : "47",
    "city" : "PARIS",
    "address" : "132, Rue De La Glaciere 75013 PARIS France",
    "coordinates" : [
      2.3419274,
      48.8267296
    ],
    "title" : "Bibliothèque Glaciere"
  },
  {
    "street" : "2, Rue Fleury",
    "zipcode" : "75018",
    "id" : "48",
    "city" : "PARIS",
    "address" : "2, Rue Fleury 75018 PARIS France",
    "coordinates" : [
      2.3541593,
      48.8841895
    ],
    "title" : "Bibliothèque Goutte D'Or"
  },
  {
    "street" : "8, Rue De La Montagne D'Aulas",
    "zipcode" : "75015",
    "id" : "49",
    "city" : "PARIS",
    "address" : "8, Rue De La Montagne D'Aulas 75015 PARIS France",
    "coordinates" : [
      2.2787776,
      48.8402475
    ],
    "title" : "Bibliothèque Gutenberg"
  },
  {
    "street" : "2, Rue Du Departement",
    "zipcode" : "75019",
    "id" : "50",
    "city" : "PARIS",
    "address" : "2, Rue Du Departement 75019 PARIS France",
    "coordinates" : [
      2.3669807,
      48.88509390000001
    ],
    "title" : "Bibliothèque Herge"
  },
  {
    "street" : "6, Rue Des Pretres Saint Severin",
    "zipcode" : "75005",
    "id" : "51",
    "city" : "PARIS",
    "address" : "6, Rue Des Pretres Saint Severin 75005 PARIS France",
    "coordinates" : [
      2.3452233,
      48.8521289
    ],
    "title" : "Bibliothèque Heure Joyeuse"
  },
  {
    "street" : "24, Rue Pavee",
    "zipcode" : "75004",
    "id" : "52",
    "city" : "PARIS",
    "address" : "24, Rue Pavee 75004 PARIS France",
    "coordinates" : [
      2.3616826,
      48.8571414
    ],
    "title" : "Bibliothèque Historique De La city De Paris"
  },
  {
    "street" : "21, Rue Saint Louis En L'Isle",
    "zipcode" : "75004",
    "id" : "53",
    "city" : "PARIS",
    "address" : "21, Rue Saint Louis En L'Isle 75004 PARIS France",
    "coordinates" : [
      2.3573883,
      48.85147610000001
    ],
    "title" : "Bibliothèque Isle Saint Louis"
  },
  {
    "street" : "211, Boulevard Vincent Auriol",
    "zipcode" : "75013",
    "id" : "54",
    "city" : "PARIS",
    "address" : "211, Boulevard Vincent Auriol 75013 PARIS France",
    "coordinates" : [
      2.3571105,
      48.83088129999999
    ],
    "title" : "Bibliothèque Italie"
  },
  {
    "street" : "77, Rue Nationale",
    "zipcode" : "75013",
    "id" : "55",
    "city" : "PARIS",
    "address" : "77, Rue Nationale 75013 PARIS France",
    "coordinates" : [
      2.3665547,
      48.8268459
    ],
    "title" : "Bibliothèque Jean Pierre Melcity"
  },
  {
    "street" : "11, Rue De Lancry",
    "zipcode" : "75010",
    "id" : "56",
    "city" : "PARIS",
    "address" : "11, Rue De Lancry 75010 PARIS France",
    "coordinates" : [
      2.360108,
      48.869387
    ],
    "title" : "Bibliothèque Lancry"
  },
  {
    "street" : "4, Place Du Louvre",
    "zipcode" : "75001",
    "id" : "57",
    "city" : "PARIS",
    "address" : "4, Place Du Louvre 75001 PARIS France",
    "coordinates" : [
      2.3411235,
      48.8602277
    ],
    "title" : "Bibliothèque Louvre"
  },
  {
    "street" : "8-12, Rue Portefoin",
    "zipcode" : "75003",
    "id" : "58",
    "city" : "PARIS",
    "address" : "8-12, Rue Portefoin 75003 PARIS France",
    "coordinates" : [
      2.3597644,
      48.8638579
    ],
    "title" : "Bibliothèque Marguerite Audoux"
  },
  {
    "street" : "19, Rue Tristan Tzara",
    "zipcode" : "75018",
    "id" : "59",
    "city" : "PARIS",
    "address" : "19, Rue Tristan Tzara 75018 PARIS France",
    "coordinates" : [
      2.3638186,
      48.8950206
    ],
    "title" : "Bibliothèque Maurice Genevoix"
  },
  {
    "street" : "74, Rue Mouffetard",
    "zipcode" : "75005",
    "id" : "60",
    "city" : "PARIS",
    "address" : "74, Rue Mouffetard 75005 PARIS France",
    "coordinates" : [
      2.3496693,
      48.8422977
    ],
    "title" : "Bibliothèque Mouffetard"
  },
  {
    "street" : "20, Rue De Musset",
    "zipcode" : "75016",
    "id" : "61",
    "city" : "PARIS",
    "address" : "20, Rue De Musset 75016 PARIS France",
    "coordinates" : [
      2.2632927,
      48.8420491
    ],
    "title" : "Bibliothèque Musset"
  },
  {
    "street" : "20, Avenue Parmentier",
    "zipcode" : "75011",
    "id" : "62",
    "city" : "PARIS",
    "address" : "20, Avenue Parmentier 75011 PARIS France",
    "coordinates" : [
      2.3787953,
      48.860121
    ],
    "title" : "Bibliothèque Parmentier"
  },
  {
    "street" : "17, Boulevard Morland",
    "zipcode" : "75004",
    "id" : "63",
    "city" : "PARIS",
    "address" : "17, Boulevard Morland 75004 PARIS France",
    "coordinates" : [
      2.362903900000001,
      48.850409
    ],
    "title" : "Bibliothèque Personnel"
  },
  {
    "street" : "70, Rue De Pizipcodeus",
    "zipcode" : "75012",
    "id" : "64",
    "city" : "PARIS",
    "address" : "70, Rue De Pizipcodeus 75012 PARIS France",
    "coordinates" : [
      2.3881833,
      48.8408083
    ],
    "title" : "Bibliothèque Pizipcodeus"
  },
  {
    "street" : "18, Rue Janssen",
    "zipcode" : "75019",
    "id" : "65",
    "city" : "PARIS",
    "address" : "18, Rue Janssen 75019 PARIS France",
    "coordinates" : [
      2.3975847,
      48.8793361
    ],
    "title" : "Bibliothèque Place Des Fetes"
  },
  {
    "street" : "3, Rue De Ridder",
    "zipcode" : "75014",
    "id" : "66",
    "city" : "PARIS",
    "address" : "3, Rue De Ridder 75014 PARIS France",
    "coordinates" : [
      2.3119068,
      48.8310948
    ],
    "title" : "Bibliothèque Plaisance"
  },
  {
    "street" : "88 Ter, Boulevard De Port Royal",
    "zipcode" : "75005",
    "id" : "67",
    "city" : "PARIS",
    "address" : "88 Ter, Boulevard De Port Royal 75005 PARIS France",
    "coordinates" : [
      2.3390979,
      48.839217
    ],
    "title" : "Bibliothèque Port Royal"
  },
  {
    "street" : "29-35, Rue Des Haies",
    "zipcode" : "75020",
    "id" : "68",
    "city" : "PARIS",
    "address" : "29-35, Rue Des Haies 75020 PARIS France",
    "coordinates" : [
      2.4013009,
      48.853265
    ],
    "title" : "Bibliothèque Reunion"
  },
  {
    "street" : "11, Rue Nicolas Chuquet",
    "zipcode" : "75017",
    "id" : "69",
    "city" : "PARIS",
    "address" : "11, Rue Nicolas Chuquet 75017 PARIS France",
    "coordinates" : [
      2.3032529,
      48.8885016
    ],
    "title" : "Bibliothèque Edmond Rostand"
  },
  {
    "street" : "23, Rue Du Colonel Rozanoff",
    "zipcode" : "75012",
    "id" : "70",
    "city" : "PARIS",
    "address" : "23, Rue Du Colonel Rozanoff 75012 PARIS France",
    "coordinates" : [
      2.3871803,
      48.8456169
    ],
    "title" : "Bibliothèque Saint Eloi"
  },
  {
    "street" : "12, Rue Du Telegraphe",
    "zipcode" : "75020",
    "id" : "71",
    "city" : "PARIS",
    "address" : "12, Rue Du Telegraphe 75020 PARIS France",
    "coordinates" : [
      2.3999956,
      48.87197829999999
    ],
    "title" : "Bibliothèque Saint Fargeau"
  },
  {
    "street" : "116, Rue De Grenelle",
    "zipcode" : "75007",
    "id" : "72",
    "city" : "PARIS",
    "address" : "116, Rue De Grenelle 75007 PARIS France",
    "coordinates" : [
      2.3198933,
      48.8569038
    ],
    "title" : "Bibliothèque Saint Simon"
  },
  {
    "street" : "17, Rue Sorbier",
    "zipcode" : "75020",
    "id" : "73",
    "city" : "PARIS",
    "address" : "17, Rue Sorbier 75020 PARIS France",
    "coordinates" : [
      2.3927994,
      48.865991
    ],
    "title" : "Bibliothèque Sorbier"
  },
  {
    "street" : "2, Rue Du Commandant Schloesing",
    "zipcode" : "75016",
    "id" : "74",
    "city" : "PARIS",
    "address" : "2, Rue Du Commandant Schloesing 75016 PARIS France",
    "coordinates" : [
      2.2857711,
      48.8617911
    ],
    "title" : "Bibliothèque Trocadero"
  },
  {
    "street" : "24, Rue De Rochechouart",
    "zipcode" : "75009",
    "id" : "75",
    "city" : "PARIS",
    "address" : "24, Rue De Rochechouart 75009 PARIS France",
    "coordinates" : [
      2.3449333,
      48.8781077
    ],
    "title" : "Bibliothèque Valeyre"
  },
  {
    "street" : "80, Avenue Du Maine",
    "zipcode" : "75014",
    "id" : "76",
    "city" : "PARIS",
    "address" : "80, Avenue Du Maine 75014 PARIS France",
    "coordinates" : [
      2.3222698,
      48.8385368
    ],
    "title" : "Bibliothèque Vandamme"
  },
  {
    "street" : "154, Rue Lecourbe",
    "zipcode" : "75015",
    "id" : "77",
    "city" : "PARIS",
    "address" : "154, Rue Lecourbe 75015 PARIS France",
    "coordinates" : [
      2.2994716,
      48.84175459999999
    ],
    "title" : "Bibliothèque Vaugirard"
  },
  {
    "street" : "41, Rue D Alleray",
    "zipcode" : "75015",
    "id" : "78",
    "city" : "PARIS",
    "address" : "41, Rue D Alleray 75015 PARIS France",
    "coordinates" : [
      2.3032214,
      48.8368431
    ],
    "title" : "Bibliothèque Yourcenar"
  },
  {
    "street" : "41, Rue D Alleray",
    "zipcode" : "75015",
    "id" : "79",
    "city" : "PARIS",
    "address" : "41, Rue D Alleray 75015 PARIS France",
    "coordinates" : [
      2.3032214,
      48.8368431
    ],
    "title" : "Bibliothèque Yourcenar"
  },
  {
    "street" : "3, Rue Du Chateau D'Eau",
    "zipcode" : "75010",
    "id" : "80",
    "city" : "PARIS",
    "address" : "3, Rue Du Chateau D'Eau 75010 PARIS France",
    "coordinates" : [
      2.3621052,
      48.8691132
    ],
    "title" : "Bourse Du Travail"
  },
  {
    "street" : "121, Rue De Mesnilmontant",
    "zipcode" : "75020",
    "id" : "81",
    "city" : "PARIS",
    "address" : "121, Rue De Mesnilmontant 75020 PARIS France",
    "coordinates" : [
      2.3944732,
      48.8699902
    ],
    "title" : "Carre Baudoin"
  },
  {
    "street" : "9, Rue De La Montagne D'Aulas",
    "zipcode" : "75015",
    "id" : "82",
    "city" : "PARIS",
    "address" : "9, Rue De La Montagne D'Aulas 75015 PARIS France",
    "coordinates" : [
      2.278901,
      48.840423
    ],
    "title" : "Centre Animation Espace Cevennes"
  },
  {
    "street" : "88, Rue La Jonquiere",
    "zipcode" : "75017",
    "id" : "83",
    "city" : "PARIS",
    "address" : "88, Rue La Jonquiere 75017 PARIS France",
    "coordinates" : [
      2.3191423,
      48.8947405
    ],
    "title" : "Centre Culturel La Jonquiere"
  },
  {
    "street" : "24, Rue Daviel",
    "zipcode" : "75013",
    "id" : "84",
    "city" : "PARIS",
    "address" : "24, Rue Daviel 75013 PARIS France",
    "coordinates" : [
      2.3447099,
      48.8281802
    ],
    "title" : "Centre d'Animation Daviel"
  },
  {
    "street" : "17, Boulevard Kellermann",
    "zipcode" : "75013",
    "id" : "85",
    "city" : "PARIS",
    "address" : "17, Boulevard Kellermann 75013 PARIS France",
    "coordinates" : [
      2.3566896,
      48.81982780000001
    ],
    "title" : "Centre d'Accueil Kellermann"
  },
  {
    "street" : "133, Boulevard Serurier",
    "zipcode" : "75019",
    "id" : "86",
    "city" : "PARIS",
    "address" : "133, Boulevard Serurier 75019 PARIS France",
    "coordinates" : [
      2.3942918,
      48.884322
    ],
    "title" : "Centre d'Animation Angele Mercier"
  },
  {
    "street" : "208, Rue Du Faubourg Saint Honore",
    "zipcode" : "75008",
    "id" : "87",
    "city" : "PARIS",
    "address" : "208, Rue Du Faubourg Saint Honore 75008 PARIS France",
    "coordinates" : [
      2.3047383,
      48.8752702
    ],
    "title" : "Centre d'Animation Espace Beaujon"
  },
  {
    "street" : "15, Rue Mathis",
    "zipcode" : "75019",
    "id" : "88",
    "city" : "PARIS",
    "address" : "15, Rue Mathis 75019 PARIS France",
    "coordinates" : [
      2.3749563,
      48.8907598
    ],
    "title" : "Centre d'Animation Jean Mathis"
  },
  {
    "street" : "6, Place Carree",
    "zipcode" : "75001",
    "id" : "89",
    "city" : "PARIS",
    "address" : "6, Place Carree 75001 PARIS France",
    "coordinates" : [
      2.345856,
      48.862347
    ],
    "title" : "Centre d'Animation Les Halles Le Marais"
  },
  {
    "street" : "46, Rue Louis Lumiere",
    "zipcode" : "75020",
    "id" : "90",
    "city" : "PARIS",
    "address" : "46, Rue Louis Lumiere 75020 PARIS France",
    "coordinates" : [
      2.4112717,
      48.8604085
    ],
    "title" : "Centre d'Animation Louis Lumiere"
  },
  {
    "street" : "4, Passage Stincity",
    "zipcode" : "75012",
    "id" : "91",
    "city" : "PARIS",
    "address" : "4, Passage Stincity 75012 PARIS France",
    "coordinates" : [
      2.3881833,
      48.8408083
    ],
    "title" : "Centre d'Animation Montgallet"
  },
  {
    "street" : "19, Rue Henard",
    "zipcode" : "75012",
    "id" : "92",
    "city" : "PARIS",
    "address" : "19, Rue Henard 75012 PARIS France",
    "coordinates" : [
      2.3896021,
      48.8425586
    ],
    "title" : "Centre d'Animation Reuilly"
  },
  {
    "street" : "6, Avenue Maurice Ravel",
    "zipcode" : "75012",
    "id" : "93",
    "city" : "PARIS",
    "address" : "6, Avenue Maurice Ravel 75012 PARIS France",
    "coordinates" : [
      2.4115664,
      48.84155270000001
    ],
    "title" : "Centre d'Hebergement Maurice Ravel"
  },
  {
    "street" : "30, Rue Louis Lumiere",
    "zipcode" : "75020",
    "id" : "94",
    "city" : "PARIS",
    "address" : "30, Rue Louis Lumiere 75020 PARIS France",
    "coordinates" : [
      2.41154,
      48.85885940000001
    ],
    "title" : "Centre Sportif Louis Lumiere"
  },
  {
    "street" : "2, Rue Louis Armand",
    "zipcode" : "75015",
    "id" : "95",
    "city" : "PARIS",
    "address" : "2, Rue Louis Armand 75015 PARIS France",
    "coordinates" : [
      2.2770785,
      48.83286760000001
    ],
    "title" : "Centre Sportif Suzanne Lenglen"
  },
  {
    "street" : "2, Rue Louis Armand",
    "zipcode" : "75015",
    "id" : "96",
    "city" : "PARIS",
    "address" : "2, Rue Louis Armand 75015 PARIS France",
    "coordinates" : [
      2.2770785,
      48.83286760000001
    ],
    "title" : "Centre Sportif Suzanne Lenglen"
  },
  {
    "street" : "2, Rue Louis Armand",
    "zipcode" : "75015",
    "id" : "97",
    "city" : "PARIS",
    "address" : "2, Rue Louis Armand 75015 PARIS France",
    "coordinates" : [
      2.2770785,
      48.83286760000001
    ],
    "title" : "Centre Sportif Suzanne Lenglen"
  },
  {
    "street" : "40, Rue Didot",
    "zipcode" : "75014",
    "id" : "98",
    "city" : "PARIS",
    "address" : "40, Rue Didot 75014 PARIS France",
    "coordinates" : [
      2.319843,
      48.8315186
    ],
    "title" : "Conseil de la Jeunesse"
  },
  {
    "street" : "24, Rue Des Ecoles",
    "zipcode" : "75005",
    "id" : "99",
    "city" : "PARIS",
    "address" : "24, Rue Des Ecoles 75005 PARIS France",
    "coordinates" : [
      2.3481758,
      48.84879979999999
    ],
    "title" : "E.C.A Rive Gauche"
  },
  {
    "street" : "8, Porte Saint Eustache",
    "zipcode" : "75001",
    "id" : "100",
    "city" : "PARIS",
    "address" : "8, Porte Saint Eustache 75001 PARIS France",
    "coordinates" : [
      2.345162,
      48.8636035
    ],
    "title" : "Discothèque des Halles"
  },
  {
    "street" : "48, Rue Veille Du Temple",
    "zipcode" : "75004",
    "id" : "101",
    "city" : "PARIS",
    "address" : "48, Rue Veille Du Temple 75004 PARIS France",
    "coordinates" : [
      2.3582842,
      48.85825560000001
    ],
    "title" : "Espace des Blancs Manteaux"
  },
  {
    "street" : "13, Rue Remy Dumoncel",
    "zipcode" : "75014",
    "id" : "102",
    "city" : "PARIS",
    "address" : "13, Rue Remy Dumoncel 75014 PARIS France",
    "coordinates" : [
      2.3323877,
      48.8296662
    ],
    "title" : "Espace Economie Emploi Du 14eme"
  },
  {
    "street" : "21, Rue Henard",
    "zipcode" : "75012",
    "id" : "103",
    "city" : "PARIS",
    "address" : "21, Rue Henard 75012 PARIS France",
    "coordinates" : [
      2.3895982,
      48.8425938
    ],
    "title" : "Espace Reuilly"
  },
  {
    "street" : "1, Rue Paul",
    "zipcode" : "75007",
    "id" : "104",
    "city" : "PARIS",
    "address" : "1, Rue Paul 75007 PARIS France",
    "coordinates" : [
      2.3124854,
      48.8621364
    ],
    "title" : "Esplanade Des Invalides"
  },
  {
    "street" : "31, Rue Des Francs Bourgeois",
    "zipcode" : "75004",
    "id" : "105",
    "city" : "PARIS",
    "address" : "31, Rue Des Francs Bourgeois 75004 PARIS France",
    "coordinates" : [
      2.3608617,
      48.8575804
    ],
    "title" : "Hotel D Albret"
  },
  {
    "street" : "20, Boulevard De La Bastille",
    "zipcode" : "75012",
    "id" : "106",
    "city" : "PARIS",
    "address" : "20, Boulevard De La Bastille 75012 PARIS France",
    "coordinates" : [
      2.3680609,
      48.8485468
    ],
    "title" : "Jardin Arsenal"
  },
  {
    "street" : "5, Place Des Cinq Martyrs Du Lycèe Buffon",
    "zipcode" : "75015",
    "id" : "107",
    "city" : "PARIS",
    "address" : "5, Place Des Cinq Martyrs 75015 PARIS France",
    "coordinates" : [
      2.3170257,
      48.8386129
    ],
    "title" : "Jardin Atlantique"
  },
  {
    "street" : "102, Boulevard Richard Lenoir",
    "zipcode" : "75011",
    "id" : "108",
    "city" : "PARIS",
    "address" : "102, Boulevard Richard Lenoir 75011 PARIS France",
    "coordinates" : [
      2.3718874,
      48.8634389
    ],
    "title" : "Jardin Bataclan"
  },
  {
    "street" : "33, Rue De Babylone",
    "zipcode" : "75007",
    "id" : "109",
    "city" : "PARIS",
    "address" : "33, Rue De Babylone 75007 PARIS France",
    "coordinates" : [
      2.3199434,
      48.8515604
    ],
    "title" : "Jardin Catherine Laboure"
  },
  {
    "street" : "Rue Du Chateau Des Rentiers",
    "zipcode" : "75013",
    "id" : "110",
    "city" : "PARIS",
    "address" : "Rue Du Chateau Des Rentiers 75013 PARIS France",
    "coordinates" : [
      2.3672643,
      48.828305
    ],
    "title" : "Jardin Chateau Des Rentiers"
  },
  {
    "street" : "17 Rue Titon",
    "zipcode" : "75011",
    "id" : "111",
    "city" : "PARIS",
    "address" : "17 Rue Titon 75011 PARIS France",
    "coordinates" : [
      2.3863677,
      48.8518106
    ],
    "title" : "Jardin Cite Prost"
  },
  {
    "street" : "36, Rue Du Chevaleret",
    "zipcode" : "75013",
    "id" : "112",
    "city" : "PARIS",
    "address" : "36, Rue Du Chevaleret 75013 PARIS France",
    "coordinates" : [
      2.3769963,
      48.82775580000001
    ],
    "title" : "Jardin Cyprian Norwid"
  },
  {
    "street" : "Rue D Aubervillier",
    "zipcode" : "75018",
    "id" : "113",
    "city" : "PARIS",
    "address" : "Rue D Aubervillier 75018 PARIS France",
    "coordinates" : [
      2.3444472,
      48.89215
    ],
    "title" : "Jardin D Eole 1"
  },
  {
    "street" : "Boulevard Macdonald",
    "zipcode" : "75019",
    "id" : "114",
    "city" : "PARIS",
    "address" : "Boulevard Macdonald 75019 PARIS France",
    "coordinates" : [
      2.3820986,
      48.8989157
    ],
    "title" : "Square Claude Bernard"
  },
  {
    "street" : "211, Boulevard Pereire",
    "zipcode" : "75017",
    "id" : "115",
    "city" : "PARIS",
    "address" : "211, Boulevard Pereire 75017 PARIS France",
    "coordinates" : [
      2.2902226,
      48.8810008
    ],
    "title" : "Jardin De La Promenade Pereire"
  },
  {
    "street" : "1, Rue Albinoni",
    "zipcode" : "75012",
    "id" : "116",
    "city" : "PARIS",
    "address" : "1, Rue Albinoni 75012 PARIS France",
    "coordinates" : [
      2.3888096,
      48.8425269
    ],
    "title" : "Jardin De Reuilly"
  },
  {
    "street" : "Rue Des Cendriers",
    "zipcode" : "75020",
    "id" : "117",
    "city" : "PARIS",
    "address" : "Rue Des Cendriers 75020 PARIS France",
    "coordinates" : [
      2.3875299,
      48.865738
    ],
    "title" : "Jardin Des Amandiers"
  },
  {
    "street" : "Chaussee De La Muette",
    "zipcode" : "75016",
    "id" : "118",
    "city" : "PARIS",
    "address" : "Chaussee De La Muette 75016 PARIS France",
    "coordinates" : [
      2.2725566,
      48.8581831
    ],
    "title" : "Jardin Du Ranelagh"
  },
  {
    "street" : "1, Place Du Onze Novembre 1918",
    "zipcode" : "75016",
    "id" : "119",
    "city" : "PARIS",
    "address" : "1, Place Du Onze Novembre 1918 75016 PARIS France",
    "coordinates" : [
      2.2882512,
      48.8629064
    ],
    "title" : "Jardin Du Trocadero"
  },
  {
    "street" : "1, Place Du Onze Novembre 1918",
    "zipcode" : "75016",
    "id" : "120",
    "city" : "PARIS",
    "address" : "1, Place Du Onze Novembre 1918 75016 PARIS France",
    "coordinates" : [
      2.2882512,
      48.8629064
    ],
    "title" : "Jardin Du Trocadero"
  },
  {
    "street" : "59, Boulevard Davout",
    "zipcode" : "75020",
    "id" : "121",
    "city" : "PARIS",
    "address" : "59, Boulevard Davout 75020 PARIS France",
    "coordinates" : [
      2.410939,
      48.8512484
    ],
    "title" : "Jardin Gare De Charonne"
  },
  {
    "street" : "148, Rue De Bagnolet",
    "zipcode" : "75020",
    "id" : "122",
    "city" : "PARIS",
    "address" : "148, Rue De Bagnolet 75020 PARIS France",
    "coordinates" : [
      2.406102,
      48.8620981
    ],
    "title" : "Jardin Hospice Debrousse"
  },
  {
    "street" : "Rue Georges Balanchine",
    "zipcode" : "75013",
    "id" : "123",
    "city" : "PARIS",
    "address" : "Rue Georges Balanchine 75013 PARIS France",
    "coordinates" : [
      2.3729886,
      48.8360006
    ],
    "title" : "Jardin James Joyce"
  },
  {
    "street" : "3, Avenue Maurice D'Ocagne",
    "zipcode" : "75014",
    "id" : "124",
    "city" : "PARIS",
    "address" : "3, Avenue Maurice D'Ocagne 75014 PARIS France",
    "coordinates" : [
      2.3149079,
      48.8243685
    ],
    "title" : "Jardin Jules Noel"
  },
  {
    "street" : "24, Rue De La Forge Royale",
    "zipcode" : "75011",
    "id" : "125",
    "city" : "PARIS",
    "address" : "24, Rue De La Forge Royale 75011 PARIS France",
    "coordinates" : [
      2.3808454,
      48.852021
    ],
    "title" : "Jardin Louis Majorelle"
  },
  {
    "street" : "237, Rue De Tolbiac",
    "zipcode" : "75013",
    "id" : "126",
    "city" : "PARIS",
    "address" : "237, Rue De Tolbiac 75013 PARIS France",
    "coordinates" : [
      2.3421943,
      48.8263662
    ],
    "title" : "Jardin Michelet"
  },
  {
    "street" : "68, Rue Du Moulin De La Pointe",
    "zipcode" : "75013",
    "id" : "127",
    "city" : "PARIS",
    "address" : "68, Rue Du Moulin De La Pointe 75013 PARIS France",
    "coordinates" : [
      2.3562929,
      48.8208057
    ],
    "title" : "Jardin Du Moulin De La Pointe"
  },
  {
    "street" : "Rue Du Moulinet",
    "zipcode" : "75013",
    "id" : "128",
    "city" : "PARIS",
    "address" : "Rue Du Moulinet 75013 PARIS France",
    "coordinates" : [
      2.354181,
      48.8267593
    ],
    "title" : "Jardin De La Montgolfiere"
  },
  {
    "street" : "28, Rue Edgar Faure",
    "zipcode" : "75015",
    "id" : "129",
    "city" : "PARIS",
    "address" : "28, Rue Edgar Faure 75015 PARIS France",
    "coordinates" : [
      2.2956047,
      48.8518205
    ],
    "title" : "Jardin Nicole De Hauteclocque"
  },
  {
    "street" : "16-26, Rue De Chatillon",
    "zipcode" : "75014",
    "id" : "130",
    "city" : "PARIS",
    "address" : "16-26, Rue De Chatillon 75014 PARIS France",
    "coordinates" : [
      2.3218955,
      48.8279367
    ],
    "title" : "Jardin Porte De Chatillon"
  },
  {
    "street" : "20, Avenue Ferdinand Buisson",
    "zipcode" : "75016",
    "id" : "131",
    "city" : "PARIS",
    "address" : "20, Avenue Ferdinand Buisson 75016 PARIS France",
    "coordinates" : [
      2.2530536,
      48.8374488
    ],
    "title" : "Jardin Porte De Saint Cloud"
  },
  {
    "street" : "34 Rue Du Rendez-Vous",
    "zipcode" : "75012",
    "id" : "132",
    "city" : "PARIS",
    "address" : "34 Rue Du Rendez-Vous 75012 PARIS France",
    "coordinates" : [
      2.4031677,
      48.8457595
    ],
    "title" : "Jardin Rue Debergue"
  },
  {
    "street" : "8 Quai Saint Bernard",
    "zipcode" : "75005",
    "id" : "133",
    "city" : "PARIS",
    "address" : "8 Quai Saint Bernard 75005 PARIS France",
    "coordinates" : [
      2.3609442,
      48.846853
    ],
    "title" : "Jardin Tino Rossi"
  },
  {
    "street" : "Passage Du Bureau",
    "zipcode" : "75011",
    "id" : "134",
    "city" : "PARIS",
    "address" : "Passage Du Bureau 75011 PARIS France",
    "coordinates" : [
      2.3940048,
      48.8545665
    ],
    "title" : "Jardin Damia"
  },
  {
    "street" : "20, Rue Des Haies",
    "zipcode" : "75020",
    "id" : "135",
    "city" : "PARIS",
    "address" : "20, Rue Des Haies 75020 PARIS France",
    "coordinates" : [
      2.4015103,
      48.8534202
    ],
    "title" : "Jardin Casque D'Or"
  },
  {
    "street" : "72, Rue Du Faubourg Saint Martin",
    "zipcode" : "75010",
    "id" : "136",
    "city" : "PARIS",
    "address" : "72, Rue Du Faubourg Saint Martin 75010 PARIS France",
    "coordinates" : [
      2.3577497,
      48.87156239999999
    ],
    "title" : "Mairie du 10E Arrondissement"
  },
  {
    "street" : "Place Leon Blum",
    "zipcode" : "75011",
    "id" : "137",
    "city" : "PARIS",
    "address" : "Place Leon Blum 75011 PARIS France",
    "coordinates" : [
      2.3800242,
      48.8577892
    ],
    "title" : "Mairie du 11E Arrondissement"
  },
  {
    "street" : "130, Avenue Daumesnil",
    "zipcode" : "75012",
    "id" : "138",
    "city" : "PARIS",
    "address" : "130, Avenue Daumesnil 75012 PARIS France",
    "coordinates" : [
      2.3888422,
      48.8411363
    ],
    "title" : "Mairie du 12E Arrondissement"
  },
  {
    "street" : "1, Place D'Italie",
    "zipcode" : "75013",
    "id" : "139",
    "city" : "PARIS",
    "address" : "1, Place D'Italie 75013 PARIS France",
    "coordinates" : [
      2.3557725,
      48.8319685
    ],
    "title" : "Mairie du 13E Arrondissement"
  },
  {
    "street" : "2, Place Ferdinand Brunot",
    "zipcode" : "75014",
    "id" : "140",
    "city" : "PARIS",
    "address" : "2, Place Ferdinand Brunot 75014 PARIS France",
    "coordinates" : [
      2.3266268,
      48.83291999999999
    ],
    "title" : "Mairie du 14E Arrondissement"
  },
  {
    "street" : "31, Rue Peclet",
    "zipcode" : "75015",
    "id" : "141",
    "city" : "PARIS",
    "address" : "31, Rue Peclet 75015 PARIS France",
    "coordinates" : [
      2.3003453,
      48.8413986
    ],
    "title" : "Mairie du 15E Arrondissement"
  },
  {
    "street" : "71, Avenue Henri Martin",
    "zipcode" : "75016",
    "id" : "142",
    "city" : "PARIS",
    "address" : "71, Avenue Henri Martin 75016 PARIS France",
    "coordinates" : [
      2.2765316,
      48.8632688
    ],
    "title" : "Mairie du 16E Arrondissement"
  },
  {
    "street" : "16, Rue Des Batignolles",
    "zipcode" : "75017",
    "id" : "143",
    "city" : "PARIS",
    "address" : "16, Rue Des Batignolles 75017 PARIS France",
    "coordinates" : [
      2.322137,
      48.88420540000001
    ],
    "title" : "Mairie du 17E Arrondissement"
  },
  {
    "street" : "1, Place Jules Joffrin",
    "zipcode" : "75018",
    "id" : "144",
    "city" : "PARIS",
    "address" : "1, Place Jules Joffrin 75018 PARIS France",
    "coordinates" : [
      2.3445174,
      48.892028
    ],
    "title" : "Mairie du 18E Arrondissement"
  },
  {
    "street" : "5, Place Armand Carrel",
    "zipcode" : "75019",
    "id" : "145",
    "city" : "PARIS",
    "address" : "5, Place Armand Carrel 75019 PARIS France",
    "coordinates" : [
      2.3816987,
      48.8825582
    ],
    "title" : "Mairie du 19E Arrondissement"
  },
  {
    "street" : "4, Place Du Louvre",
    "zipcode" : "75001",
    "id" : "146",
    "city" : "PARIS",
    "address" : "4, Place Du Louvre 75001 PARIS France",
    "coordinates" : [
      2.3411235,
      48.8602277
    ],
    "title" : "Mairie du 1Er Arrondissement"
  },
  {
    "street" : "6, Place Gambetta",
    "zipcode" : "75020",
    "id" : "147",
    "city" : "PARIS",
    "address" : "6, Place Gambetta 75020 PARIS France",
    "coordinates" : [
      2.3987537,
      48.8649972
    ],
    "title" : "Mairie du 20E Arrondissement"
  },
  {
    "street" : "8, Rue De La Banque",
    "zipcode" : "75002",
    "id" : "148",
    "city" : "PARIS",
    "address" : "8, Rue De La Banque 75002 PARIS France",
    "coordinates" : [
      2.3405125,
      48.86687680000001
    ],
    "title" : "Mairie du 2E Arrondissement"
  },
  {
    "street" : "2, Rue Eugene Spuller",
    "zipcode" : "75003",
    "id" : "149",
    "city" : "PARIS",
    "address" : "2, Rue Eugene Spuller 75003 PARIS France",
    "coordinates" : [
      2.3613365,
      48.86375760000001
    ],
    "title" : "Mairie du 3E Arrondissement"
  },
  {
    "street" : "2, Place Baudoyer",
    "zipcode" : "75004",
    "id" : "150",
    "city" : "PARIS",
    "address" : "2, Place Baudoyer 75004 PARIS France",
    "coordinates" : [
      2.3553172,
      48.8559279
    ],
    "title" : "Mairie du 4E Arrondissement"
  },
  {
    "street" : "21, Place Du Pantheon",
    "zipcode" : "75005",
    "id" : "151",
    "city" : "PARIS",
    "address" : "21, Place Du Pantheon 75005 PARIS France",
    "coordinates" : [
      2.3444932,
      48.8465518
    ],
    "title" : "Mairie du 5E Arrondissement"
  },
  {
    "street" : "78, Rue Bonaparte",
    "zipcode" : "75006",
    "id" : "152",
    "city" : "PARIS",
    "address" : "78, Rue Bonaparte 75006 PARIS France",
    "coordinates" : [
      2.3327727,
      48.8505347
    ],
    "title" : "Mairie du 6E Arrondissement"
  },
  {
    "street" : "116, Rue De Grenelle",
    "zipcode" : "75007",
    "id" : "153",
    "city" : "PARIS",
    "address" : "116, Rue De Grenelle 75007 PARIS France",
    "coordinates" : [
      2.3198933,
      48.8569038
    ],
    "title" : "Mairie du 7E Arrondissement"
  },
  {
    "street" : "3, Rue De Lisbonne",
    "zipcode" : "75008",
    "id" : "154",
    "city" : "PARIS",
    "address" : "3, Rue De Lisbonne 75008 PARIS France",
    "coordinates" : [
      2.3175378,
      48.8777165
    ],
    "title" : "Mairie du 8E Arrondissement"
  },
  {
    "street" : "6, Rue Drouot",
    "zipcode" : "75009",
    "id" : "155",
    "city" : "PARIS",
    "address" : "6, Rue Drouot 75009 PARIS France",
    "coordinates" : [
      2.3404013,
      48.87265319999999
    ],
    "title" : "Mairie du 9E Arrondissement"
  },
  {
    "street" : "47, Rue Raynouard",
    "zipcode" : "75016",
    "id" : "156",
    "city" : "PARIS",
    "address" : "47, Rue Raynouard 75016 PARIS France",
    "coordinates" : [
      2.2807973,
      48.8554059
    ],
    "title" : "Maison de Balzac"
  },
  {
    "street" : "126, Avenue D'Italie",
    "zipcode" : "75013",
    "id" : "157",
    "city" : "PARIS",
    "address" : "126, Avenue D'Italie 75013 PARIS France",
    "coordinates" : [
      2.3580239,
      48.8237001
    ],
    "title" : "Maison de L'Emploi Du 13eme"
  },
  {
    "street" : "164, Rue Ordener",
    "zipcode" : "75018",
    "id" : "158",
    "city" : "PARIS",
    "address" : "164, Rue Ordener 75018 PARIS France",
    "coordinates" : [
      2.3354934,
      48.8937843
    ],
    "title" : "Maison de L'Emploi Du 18eme"
  },
  {
    "street" : "6, Place Des Vosges",
    "zipcode" : "75004",
    "id" : "159",
    "city" : "PARIS",
    "address" : "6, Place Des Vosges 75004 PARIS France",
    "coordinates" : [
      2.3660266,
      48.8549265
    ],
    "title" : "Maison de Victor Hugo"
  },
  {
    "street" : "38 , Boulevard Henry IV",
    "zipcode" : "75004",
    "id" : "160",
    "city" : "PARIS",
    "address" : "38 , Boulevard Henry IV 75004 PARIS France",
    "coordinates" : [
      2.3659378,
      48.8521964
    ],
    "title" : "Maison des Associations Du 04eme"
  },
  {
    "street" : "7, Square Adanson",
    "zipcode" : "75005",
    "id" : "161",
    "city" : "PARIS",
    "address" : "7, Square Adanson 75005 PARIS France",
    "coordinates" : [
      2.352039,
      48.83951510000001
    ],
    "title" : "Maison des Associations Du 05eme"
  },
  {
    "street" : "206, Quai De Valmy",
    "zipcode" : "75010",
    "id" : "162",
    "city" : "PARIS",
    "address" : "206, Quai De Valmy 75010 PARIS France",
    "coordinates" : [
      2.3685937,
      48.8816139
    ],
    "title" : "Maison des Associations Du 10eme"
  },
  {
    "street" : "8, Rue Du General Renault",
    "zipcode" : "75011",
    "id" : "163",
    "city" : "PARIS",
    "address" : "8, Rue Du General Renault 75011 PARIS France",
    "coordinates" : [
      2.3784498,
      48.8612534
    ],
    "title" : "Maison des Associations Du 11eme"
  },
  {
    "street" : "181, Avenue Daumesnil",
    "zipcode" : "75012",
    "id" : "164",
    "city" : "PARIS",
    "address" : "181, Avenue Daumesnil 75012 PARIS France",
    "coordinates" : [
      2.3925229,
      48.8403432
    ],
    "title" : "Maison des Associations Du 12eme"
  },
  {
    "street" : "181, Avenue Daumesnil",
    "zipcode" : "75012",
    "id" : "165",
    "city" : "PARIS",
    "address" : "181, Avenue Daumesnil 75012 PARIS France",
    "coordinates" : [
      2.3925229,
      48.8403432
    ],
    "title" : "Maison des Associations Du 12eme"
  },
  {
    "street" : "13, Rue Caillaux",
    "zipcode" : "75013",
    "id" : "166",
    "city" : "PARIS",
    "address" : "13, Rue Caillaux 75013 PARIS France",
    "coordinates" : [
      2.3610693,
      48.8226391
    ],
    "title" : "Maison des Associations Du 13eme"
  },
  {
    "street" : "22, Rue Deparcieux",
    "zipcode" : "75014",
    "id" : "167",
    "city" : "PARIS",
    "address" : "22, Rue Deparcieux 75014 PARIS France",
    "coordinates" : [
      2.3258189,
      48.8356196
    ],
    "title" : "Maison des Associations Du 14eme"
  },
  {
    "street" : "26, Rue De La Saida",
    "zipcode" : "75015",
    "id" : "168",
    "city" : "PARIS",
    "address" : "26, Rue De La Saida 75015 PARIS France",
    "coordinates" : [
      2.296257,
      48.8317063
    ],
    "title" : "Maison des Associations Du 15eme"
  },
  {
    "street" : "16, Avenue Rene Boylesve",
    "zipcode" : "75016",
    "id" : "169",
    "city" : "PARIS",
    "address" : "16, Avenue Rene Boylesve 75016 PARIS France",
    "coordinates" : [
      2.2841697,
      48.8565842
    ],
    "title" : "Maison des Associations Du 16eme"
  },
  {
    "street" : "15, Passage Ramey",
    "zipcode" : "75018",
    "id" : "170",
    "city" : "PARIS",
    "address" : "15, Passage Ramey 75018 PARIS France",
    "coordinates" : [
      2.3473489,
      48.8900247
    ],
    "title" : "Maison des Associations Du 18eme"
  },
  {
    "street" : "20, Rue Edouard Pailleron",
    "zipcode" : "75019",
    "id" : "171",
    "city" : "PARIS",
    "address" : "20, Rue Edouard Pailleron 75019 PARIS France",
    "coordinates" : [
      2.3766268,
      48.88049179999999
    ],
    "title" : "Maison des Associations Du 19eme"
  },
  {
    "street" : "23, Rue Greneta",
    "zipcode" : "75002",
    "id" : "172",
    "city" : "PARIS",
    "address" : "23, Rue Greneta 75002 PARIS France",
    "coordinates" : [
      2.3505646,
      48.8651065
    ],
    "title" : "Maison des Associations Du 02eme"
  },
  {
    "street" : "1, Rue Frederick Lemaitre",
    "zipcode" : "75020",
    "id" : "173",
    "city" : "PARIS",
    "address" : "1, Rue Frederick Lemaitre 75020 PARIS France",
    "coordinates" : [
      2.3909519,
      48.8734873
    ],
    "title" : "Maison des Associations Du 20eme"
  },
  {
    "street" : "2, Rue Eugene Spuller",
    "zipcode" : "75003",
    "id" : "174",
    "city" : "PARIS",
    "address" : "2, Rue Eugene Spuller 75003 PARIS France",
    "coordinates" : [
      2.3613365,
      48.86375760000001
    ],
    "title" : "Maison des Associations Du 03eme"
  },
  {
    "street" : "60, Rue Saint Andre Des Arts",
    "zipcode" : "75006",
    "id" : "175",
    "city" : "PARIS",
    "address" : "60, Rue Saint Andre Des Arts 75006 PARIS France",
    "coordinates" : [
      2.3396063,
      48.8535379
    ],
    "title" : "Maison des Associations Du 06eme"
  },
  {
    "street" : "93, Rue Saint Dominique",
    "zipcode" : "75007",
    "id" : "176",
    "city" : "PARIS",
    "address" : "93, Rue Saint Dominique 75007 PARIS France",
    "coordinates" : [
      2.3071647,
      48.8595563
    ],
    "title" : "Maison des Associations Du 07eme"
  },
  {
    "street" : "23, Rue Vernet",
    "zipcode" : "75008",
    "id" : "177",
    "city" : "PARIS",
    "address" : "23, Rue Vernet 75008 PARIS France",
    "coordinates" : [
      2.2981633,
      48.8718917
    ],
    "title" : "Maison des Associations Du 08eme"
  },
  {
    "street" : "54, Rue Pigalle",
    "zipcode" : "75009",
    "id" : "178",
    "city" : "PARIS",
    "address" : "54, Rue Pigalle 75009 PARIS France",
    "coordinates" : [
      2.3381329,
      48.8824647
    ],
    "title" : "Maison des Associations Du 09eme"
  },
  {
    "street" : "27, Rue Du Maroc",
    "zipcode" : "75019",
    "id" : "179",
    "city" : "PARIS",
    "address" : "27, Rue Du Maroc 75019 PARIS France",
    "coordinates" : [
      2.3678572,
      48.8869653
    ],
    "title" : "Maison Du Developpement Economique Du 19eme"
  },
  {
    "street" : "31, Rue De Pixerecourt",
    "zipcode" : "75020",
    "id" : "180",
    "city" : "PARIS",
    "address" : "31, Rue De Pixerecourt 75020 PARIS France",
    "coordinates" : [
      2.3957665,
      48.8720226
    ],
    "title" : "Maison Du Developpement Economique Du 20eme"
  },
  {
    "street" : "50, Rue Des Tournelles",
    "zipcode" : "75003",
    "id" : "181",
    "city" : "PARIS",
    "address" : "50, Rue Des Tournelles 75003 PARIS France",
    "coordinates" : [
      2.3673195,
      48.8562099
    ],
    "title" : "Maison Initiatives Etudiantes"
  },
  {
    "street" : "16, Rue Antoine Bourdelle",
    "zipcode" : "75015",
    "id" : "182",
    "city" : "PARIS",
    "address" : "16, Rue Antoine Bourdelle 75015 PARIS France",
    "coordinates" : [
      2.3189531,
      48.8429892
    ],
    "title" : "Musee Antoine Bourdelle"
  },
  {
    "street" : "23, Rue De Sevigne",
    "zipcode" : "75003",
    "id" : "183",
    "city" : "PARIS",
    "address" : "23, Rue De Sevigne 75003 PARIS France",
    "coordinates" : [
      2.3648458,
      48.8581541
    ],
    "title" : "Musee Carnavalet"
  },
  {
    "street" : "7, Avenue Velasquez",
    "zipcode" : "75008",
    "id" : "184",
    "city" : "PARIS",
    "address" : "7, Avenue Velasquez 75008 PARIS France",
    "coordinates" : [
      2.3124212,
      48.8796566
    ],
    "title" : "Musee Cernuschi"
  },
  {
    "street" : "11, Avenue Du President Wilson",
    "zipcode" : "75016",
    "id" : "185",
    "city" : "PARIS",
    "address" : "11, Avenue Du President Wilson 75016 PARIS France",
    "coordinates" : [
      2.2972109,
      48.8646665
    ],
    "title" : "Musee D'Art Moderne"
  },
  {
    "street" : "1, Avenue Dutuit",
    "zipcode" : "75008",
    "id" : "186",
    "city" : "PARIS",
    "address" : "1, Avenue Dutuit 75008 PARIS France",
    "coordinates" : [
      2.3164166,
      48.86608649999999
    ],
    "title" : "Musee Du Petit Palais"
  },
  {
    "street" : "23, Allee De La Deuxieme Division Blindee",
    "zipcode" : "75015",
    "id" : "187",
    "city" : "PARIS",
    "address" : "23, Allee De La Deuxieme Division Blindee 75015 PARIS France",
    "coordinates" : [
      2.31852,
      48.839547
    ],
    "title" : "Musee Memorial Marechal Leclerc"
  },
  {
    "street" : "5, Rue De La Montagne De La Fage",
    "zipcode" : "75015",
    "id" : "188",
    "city" : "PARIS",
    "address" : "5, Rue De La Montagne De La Fage 75015 PARIS France",
    "coordinates" : [
      2.2779827,
      48.8403911
    ],
    "title" : "Parc Andre Citroen"
  },
  {
    "street" : "Rue De La Montagne De La Fage",
    "zipcode" : "75015",
    "id" : "189",
    "city" : "PARIS",
    "address" : "Rue De La Montagne De La Fage 75015 PARIS France",
    "coordinates" : [
      2.2770627,
      48.8396671
    ],
    "title" : "Parc Andre Citroen"
  },
  {
    "street" : "Avenue Charles Risler",
    "zipcode" : "75007",
    "id" : "190",
    "city" : "PARIS",
    "address" : "Avenue Charles Risler 75007 PARIS France",
    "coordinates" : [
      2.300392500000001,
      48.8547441
    ],
    "title" : "Parc Champs De Mars"
  },
  {
    "street" : "Avenue Charles Risler",
    "zipcode" : "75007",
    "id" : "191",
    "city" : "PARIS",
    "address" : "Avenue Charles Risler 75007 PARIS France",
    "coordinates" : [
      2.300392500000001,
      48.8547441
    ],
    "title" : "Parc Champs De Mars"
  },
  {
    "street" : "Rue Cardinet",
    "zipcode" : "75017",
    "id" : "192",
    "city" : "PARIS",
    "address" : "Rue Cardinet 75017 PARIS France",
    "coordinates" : [
      2.3108815,
      48.8851343
    ],
    "title" : "Parc Clichy Batignolles"
  },
  {
    "street" : "45, Rue Des Couronnes",
    "zipcode" : "75020",
    "id" : "193",
    "city" : "PARIS",
    "address" : "45, Rue Des Couronnes 75020 PARIS France",
    "coordinates" : [
      2.3845846,
      48.8702344
    ],
    "title" : "Parc de Bellecity"
  },
  {
    "street" : "45, Rue Des Couronnes",
    "zipcode" : "75020",
    "id" : "194",
    "city" : "PARIS",
    "address" : "45, Rue Des Couronnes 75020 PARIS France",
    "coordinates" : [
      2.3845846,
      48.8702344
    ],
    "title" : "Parc de Bellecity"
  },
  {
    "street" : "27, Rue Piat",
    "zipcode" : "75020",
    "id" : "195",
    "city" : "PARIS",
    "address" : "27, Rue Piat 75020 PARIS France",
    "coordinates" : [
      2.3850274,
      48.8718712
    ],
    "title" : "Parc de Bellecity"
  },
  {
    "street" : "1, Cour Chamonard",
    "zipcode" : "75012",
    "id" : "196",
    "city" : "PARIS",
    "address" : "1, Cour Chamonard 75012 PARIS France",
    "coordinates" : [
      2.3881833,
      48.8408083
    ],
    "title" : "Parc de Bercy (jardinage)"
  },
  {
    "street" : "1, Cour Chamonard",
    "zipcode" : "75012",
    "id" : "197",
    "city" : "PARIS",
    "address" : "1, Cour Chamonard 75012 PARIS France",
    "coordinates" : [
      2.3881833,
      48.8408083
    ],
    "title" : "Parc de Bercy"
  },
  {
    "street" : "1, Cour Chamonard",
    "zipcode" : "75012",
    "id" : "198",
    "city" : "PARIS",
    "address" : "1, Cour Chamonard 75012 PARIS France",
    "coordinates" : [
      2.3881833,
      48.8408083
    ],
    "title" : "Parc de Bercy (orangerie)"
  },
  {
    "street" : "1, Cour Chamonard",
    "zipcode" : "75012",
    "id" : "199",
    "city" : "PARIS",
    "address" : "1, Cour Chamonard 75012 PARIS France",
    "coordinates" : [
      2.3881833,
      48.8408083
    ],
    "title" : "Parc de Bercy (terrasse Bercy)"
  },
  {
    "street" : "160, Avenue De Choisy",
    "zipcode" : "75013",
    "id" : "200",
    "city" : "PARIS",
    "address" : "160, Avenue De Choisy 75013 PARIS France",
    "coordinates" : [
      2.358049,
      48.8285812
    ],
    "title" : "Parc de Choisy"
  },
  {
    "street" : "160, Avenue De Choisy",
    "zipcode" : "75013",
    "id" : "201",
    "city" : "PARIS",
    "address" : "160, Avenue De Choisy 75013 PARIS France",
    "coordinates" : [
      2.358049,
      48.8285812
    ],
    "title" : "Parc de Choisy"
  },
  {
    "street" : "5, Rue Alphonse Aulard",
    "zipcode" : "75019",
    "id" : "202",
    "city" : "PARIS",
    "address" : "5, Rue Alphonse Aulard 75019 PARIS France",
    "coordinates" : [
      2.4000035,
      48.8806643
    ],
    "title" : "Parc de La Butte Du Chapeau Rouge"
  },
  {
    "street" : "5, Rue Alphonse Aulard",
    "zipcode" : "75019",
    "id" : "203",
    "city" : "PARIS",
    "address" : "5, Rue Alphonse Aulard 75019 PARIS France",
    "coordinates" : [
      2.4000035,
      48.8806643
    ],
    "title" : "Parc de La Butte Du Chapeau Rouge"
  },
  {
    "street" : "Avenue Du President Kennedy",
    "zipcode" : "75016",
    "id" : "204",
    "city" : "PARIS",
    "address" : "Avenue Du President Kennedy 75016 PARIS France",
    "coordinates" : [
      2.28339,
      48.8543814
    ],
    "title" : "Parc de Passy"
  },
  {
    "street" : "1, Rue Botzaris",
    "zipcode" : "75019",
    "id" : "205",
    "city" : "PARIS",
    "address" : "1, Rue Botzaris 75019 PARIS France",
    "coordinates" : [
      2.3811314,
      48.8769645
    ],
    "title" : "Parc des Buttes Chaumont (Bolivar)"
  },
  {
    "street" : "4, Place Armand Carrel",
    "zipcode" : "75019",
    "id" : "206",
    "city" : "PARIS",
    "address" : "4, Place Armand Carrel 75019 PARIS France",
    "coordinates" : [
      2.3826624,
      48.882498
    ],
    "title" : "Parc des Buttes Chaumont (Carrel)"
  },
  {
    "street" : "3, Rue Botzaris",
    "zipcode" : "75019",
    "id" : "207",
    "city" : "PARIS",
    "address" : "3, Rue Botzaris 75019 PARIS France",
    "coordinates" : [
      2.3811763,
      48.8779359
    ],
    "title" : "Parc des Buttes Chaumont (Fessard)"
  },
  {
    "street" : "74, Rue Botzaris",
    "zipcode" : "75019",
    "id" : "208",
    "city" : "PARIS",
    "address" : "74, Rue Botzaris 75019 PARIS France",
    "coordinates" : [
      2.388485,
      48.879538
    ],
    "title" : "Parc des Buttes Chaumont"
  },
  {
    "street" : "2, Place Jacques Marette",
    "zipcode" : "75015",
    "id" : "209",
    "city" : "PARIS",
    "address" : "2, Place Jacques Marette 75015 PARIS France",
    "coordinates" : [
      2.3002917,
      48.84132779999999
    ],

    "title" : "Parc Georges Brassens (entree)"
  },
  {
    "street" : "2, Place Jacques Marette",
    "zipcode" : "75015",
    "id" : "210",
    "city" : "PARIS",
    "address" : "2, Place Jacques Marette 75015 PARIS France",
    "coordinates" : [
      2.3002917,
      48.84132779999999
    ],
    "title" : "Parc Georges Brassens (rotonde)"
  },
  {
    "street" : "3, Rue De La Poterne Des Peupliers",
    "zipcode" : "75013",
    "id" : "211",
    "city" : "PARIS",
    "address" : "3, Rue De La Poterne Des Peupliers 75013 PARIS France",
    "coordinates" : [
      2.3525833,
      48.8208543
    ],
    "title" : "Parc Kellermann"
  },
  {
    "street" : "1, Place De La Republique Dominicaine",
    "zipcode" : "75008",
    "id" : "212",
    "city" : "PARIS",
    "address" : "1, Place De La Republique Dominicaine 75008 PARIS France",
    "coordinates" : [
      2.3091978,
      48.8804486
    ],
    "title" : "Parc Monceau"
  },
  {
    "street" : "2, Rue Gazan",
    "zipcode" : "75014",
    "id" : "213",
    "city" : "PARIS",
    "address" : "2, Rue Gazan 75014 PARIS France",
    "coordinates" : [
      2.3399516,
      48.8242155
    ],
    "title" : "Parc Montsouris"
  },
  {
    "street" : "2, Rue Gazan",
    "zipcode" : "75014",
    "id" : "214",
    "city" : "PARIS",
    "address" : "2, Rue Gazan 75014 PARIS France",
    "coordinates" : [
      2.3399516,
      48.8242155
    ],
    "title" : "Parc Montsouris"
  },
  {
    "street" : "2, Rue Gazan",
    "zipcode" : "75014",
    "id" : "215",
    "city" : "PARIS",
    "address" : "2, Rue Gazan 75014 PARIS France",
    "coordinates" : [
      2.3399516,
      48.8242155
    ],
    "title" : "Parc Montsouris"
  },
  {
    "street" : "Avenue Edouard Tuck",
    "zipcode" : "75008",
    "id" : "216",
    "city" : "PARIS",
    "address" : "Avenue Edouard Tuck 75008 PARIS France",
    "coordinates" : [
      2.317311,
      48.86544500000001
    ],
    "title" : "Jardin De La Vallee Suisse"
  },
  {
    "street" : "Avenue Edouard Tuck",
    "zipcode" : "75008",
    "id" : "217",
    "city" : "PARIS",
    "address" : "Avenue Edouard Tuck 75008 PARIS France",
    "coordinates" : [
      2.317311,
      48.86544500000001
    ],
    "title" : "Promenade Des Champs Elysees"
  },
  {
    "street" : "Allee Vivaldi",
    "zipcode" : "75012",
    "id" : "218",
    "city" : "PARIS",
    "address" : "Allee Vivaldi 75012 PARIS France",
    "coordinates" : [
      2.3913496,
      48.8415232
    ],
    "title" : "Promenade Plantee"
  },
  {
    "street" : "39, Rue Edouard Pailleron",
    "zipcode" : "75019",
    "id" : "219",
    "city" : "PARIS",
    "address" : "39, Rue Edouard Pailleron 75019 PARIS France",
    "coordinates" : [
      2.3794402,
      48.8812992
    ],
    "title" : "Solarium Edouard Pailleron"
  },
  {
    "street" : "Porte De La Gare",
    "zipcode" : "75013",
    "id" : "220",
    "city" : "PARIS",
    "address" : "Porte De La Gare 75013 PARIS France",
    "coordinates" : [
      2.3857766,
      48.827333
    ],
    "title" : "Solarium Josephine Baker"
  },
  {
    "street" : "34, Boulevard Carnot",
    "zipcode" : "75012",
    "id" : "221",
    "city" : "PARIS",
    "address" : "34, Boulevard Carnot 75012 PARIS France",
    "coordinates" : [
      2.4130814,
      48.8425673
    ],
    "title" : "Solarium Roger Le Gall"
  },
  {
    "street" : "107, Rue Du Faubourg Saint Denis",
    "zipcode" : "75010",
    "id" : "222",
    "city" : "PARIS",
    "address" : "107, Rue Du Faubourg Saint Denis 75010 PARIS France",
    "coordinates" : [
      2.3558891,
      48.87516
    ],
    "title" : "Square Alban Satragne"
  },
  {
    "street" : "Boulevard Thierry De Martel",
    "zipcode" : "75016",
    "id" : "223",
    "city" : "PARIS",
    "address" : "Boulevard Thierry De Martel 75016 PARIS France",
    "coordinates" : [
      2.279971,
      48.8767781
    ],
    "title" : "Square Alexandre Et Rene Parodi"
  },
  {
    "street" : "92, Rue D'Alleray",
    "zipcode" : "75015",
    "id" : "224",
    "city" : "PARIS",
    "address" : "92, Rue D'Alleray 75015 PARIS France",
    "coordinates" : [
      2.3086039,
      48.8363081
    ],
    "title" : "Square Alleray Labrouste"
  },
  {
    "street" : "17, Rue Boy Zelenski",
    "zipcode" : "75010",
    "id" : "225",
    "city" : "PARIS",
    "address" : "17, Rue Boy Zelenski 75010 PARIS France",
    "coordinates" : [
      2.3675155,
      48.87653940000001
    ],
    "title" : "Square Amadou Hampate Ba"
  },
  {
    "street" : "17, Boulvard De Reims",
    "zipcode" : "75017",
    "id" : "226",
    "city" : "PARIS",
    "address" : "17, Boulvard De Reims 75017 PARIS France",
    "coordinates" : [
      2.2996865,
      48.8905991
    ],
    "title" : "Square Andre Ulmann"
  },
  {
    "street" : "128, Rue De Bagnolet",
    "zipcode" : "75020",
    "id" : "227",
    "city" : "PARIS",
    "address" : "128, Rue De Bagnolet 75020 PARIS France",
    "coordinates" : [
      2.4047284,
      48.8607024
    ],
    "title" : "Square Antoine Blondin"
  },
  {
    "street" : "Rue Mouton Duvernet",
    "zipcode" : "75014",
    "id" : "228",
    "city" : "PARIS",
    "address" : "Rue Mouton Duvernet 75014 PARIS France",
    "coordinates" : [
      2.32743,
      48.8320233
    ],
    "title" : "Square Aspirant Dunand"
  },
  {
    "street" : "25, Boulevard Richard Lenoir",
    "zipcode" : "75011",
    "id" : "229",
    "city" : "PARIS",
    "address" : "25, Boulevard Richard Lenoir 75011 PARIS France",
    "coordinates" : [
      2.370549,
      48.8571877
    ],
    "title" : "Square Breguet Sabin"
  },
  {
    "street" : "Rue Rottembourg",
    "zipcode" : "75012",
    "id" : "230",
    "city" : "PARIS",
    "address" : "Rue Rottembourg 75012 PARIS France",
    "coordinates" : [
      2.4062663,
      48.8383342
    ],
    "title" : "Square Charles Peguy"
  },
  {
    "street" : "159, Rue De Charonne",
    "zipcode" : "75011",
    "id" : "231",
    "city" : "PARIS",
    "address" : "159, Rue De Charonne 75011 PARIS France",
    "coordinates" : [
      2.3894956,
      48.8556407
    ],
    "title" : "Square Charonne"
  },
  {
    "street" : "2, Place Denfert Rochereau",
    "zipcode" : "75014",
    "id" : "232",
    "city" : "PARIS",
    "address" : "2, Place Denfert Rochereau 75014 PARIS France",
    "coordinates" : [
      2.331871,
      48.834972
    ],
    "title" : "Square Claude Nicolas Ledoux"
  },
  {
    "street" : "Rue Du Clos Feuquieres",
    "zipcode" : "75015",
    "id" : "233",
    "city" : "PARIS",
    "address" : "Rue Du Clos Feuquieres 75015 PARIS France",
    "coordinates" : [
      2.2918472,
      48.8367903
    ],
    "title" : "Square Clos Feuquieres"
  },
  {
    "street" : "Place D'Anvers",
    "zipcode" : "75009",
    "id" : "234",
    "city" : "PARIS",
    "address" : "Place D'Anvers 75009 PARIS France",
    "coordinates" : [
      2.3442924,
      48.8819148
    ],
    "title" : "Square D'Anvers"
  },
  {
    "street" : "1 Bis, Rue De La Marseillaise",
    "zipcode" : "75019",
    "id" : "235",
    "city" : "PARIS",
    "address" : "1 Bis, Rue De La Marseillaise 75019 PARIS France",
    "coordinates" : [
      2.3979153,
      48.8885259
    ],
    "title" : "Square De La Marseillaise"
  },
  {
    "street" : "Boulevard Vincent Auriol",
    "zipcode" : "75013",
    "id" : "236",
    "city" : "PARIS",
    "address" : "Boulevard Vincent Auriol 75013 PARIS France",
    "coordinates" : [
      2.3649225,
      48.8339063
    ],
    "title" : "Square De La Raffinerie Say"
  },
  {
    "street" : "Rue Saint Blaise",
    "zipcode" : "75020",
    "id" : "237",
    "city" : "PARIS",
    "address" : "Rue Saint Blaise 75020 PARIS France",
    "coordinates" : [
      2.4066963,
      48.8582905
    ],
    "title" : "Square De La Salamandre"
  },
  {
    "street" : "32, Rue De La Jonquiere",
    "zipcode" : "75017",
    "id" : "238",
    "city" : "PARIS",
    "address" : "32, Rue De La Jonquiere 75017 PARIS France",
    "coordinates" : [
      2.3241263,
      48.89358430000001
    ],
    "title" : "Square De La Villa Sainte-Croix"
  },
  {
    "street" : "30, Quai Des Celestins",
    "zipcode" : "75004",
    "id" : "239",
    "city" : "PARIS",
    "address" : "30, Quai Des Celestins 75004 PARIS France",
    "coordinates" : [
      2.3597819,
      48.8527355
    ],
    "title" : "Square De L'Ave Maria"
  },
  {
    "street" : "4 Rue Des Arenes",
    "zipcode" : "75005",
    "id" : "240",
    "city" : "PARIS",
    "address" : "4 Rue Des Arenes 75005 PARIS France",
    "coordinates" : [
      2.3543851,
      48.845095
    ],
    "title" : "Square Des Arenes De Lutece"
  },
  {
    "street" : "Place Charles Fillion",
    "zipcode" : "75017",
    "id" : "241",
    "city" : "PARIS",
    "address" : "Place Charles Fillion 75017 PARIS France",
    "coordinates" : [
      2.3169267,
      48.8878532
    ],
    "title" : "Square Des Batignolles"
  },
  {
    "street" : "Rue Maria Deraismes",
    "zipcode" : "75017",
    "id" : "242",
    "city" : "PARIS",
    "address" : "Rue Maria Deraismes 75017 PARIS France",
    "coordinates" : [
      2.3270546,
      48.8941349
    ],
    "title" : "Square Des Epinettes"
  },
  {
    "street" : "2 Passage Dumas",
    "zipcode" : "75011",
    "id" : "243",
    "city" : "PARIS",
    "address" : "2 Passage Dumas 75011 PARIS France",
    "coordinates" : [
      2.3898245,
      48.85202229999999
    ],
    "title" : "Square Des Jardiniers"
  },
  {
    "street" : "2, Rue Gustave Charpentier",
    "zipcode" : "75017",
    "id" : "244",
    "city" : "PARIS",
    "address" : "2, Rue Gustave Charpentier 75017 PARIS France",
    "coordinates" : [
      2.2827506,
      48.8826051
    ],
    "title" : "Square Du Cardinal Petit De Jullecity"
  },
  {
    "street" : "72, Rue Du Moulin Vert",
    "zipcode" : "75014",
    "id" : "245",
    "city" : "PARIS",
    "address" : "72, Rue Du Moulin Vert 75014 PARIS France",
    "coordinates" : [
      2.3198432,
      48.8313503
    ],
    "title" : "Square Du Chanoine Viollet"
  },
  {
    "street" : "8, Avenue Du Gènèral Sarrail",
    "zipcode" : "75016",
    "id" : "246",
    "city" : "PARIS",
    "address" : "8, Avenue Du General Sarrail 75016 PARIS France",
    "coordinates" : [
      2.2562927,
      48.84640590000001
    ],
    "title" : "Square Du Tchad"
  },
  {
    "street" : "Rue Belgrand",
    "zipcode" : "75020",
    "id" : "247",
    "city" : "PARIS",
    "address" : "Rue Belgrand 75020 PARIS France",
    "coordinates" : [
      2.4035527,
      48.8647004
    ],
    "title" : "Square Edouard Vaillant"
  },
  {
    "street" : "Rue Saint Martin",
    "zipcode" : "75003",
    "id" : "248",
    "city" : "PARIS",
    "address" : "Rue Saint Martin 75003 PARIS France",
    "coordinates" : [
      2.3523542,
      48.86293149999999
    ],
    "title" : "Square Emile Chautemps"
  },
  {
    "street" : "Rue Le Vau",
    "zipcode" : "75020",
    "id" : "249",
    "city" : "PARIS",
    "address" : "Rue Le Vau 75020 PARIS France",
    "coordinates" : [
      2.411032,
      48.8678904
    ],
    "title" : "Square Emmanuelle Fleury"
  },
  {
    "street" : "55, Avenue De Clichy",
    "zipcode" : "75017",
    "id" : "250",
    "city" : "PARIS",
    "address" : "55, Avenue De Clichy 75017 PARIS France",
    "coordinates" : [
      2.3256381,
      48.8874339
    ],
    "title" : "Square Ernest Chausson"
  },
  {
    "street" : "168 Bis, Boulevard Saint Germain",
    "zipcode" : "75006",
    "id" : "251",
    "city" : "PARIS",
    "address" : "168 Bis, Boulevard Saint Germain 75006 PARIS France",
    "coordinates" : [
      2.3351951,
      48.8534963
    ],
    "title" : "Square Felix Desruelles"
  },
  {
    "street" : "Place Ferdinand Brunot",
    "zipcode" : "75014",
    "id" : "252",
    "city" : "PARIS",
    "address" : "Place Ferdinand Brunot 75014 PARIS France",
    "coordinates" : [
      2.3272784,
      48.832626
    ],
    "title" : "Square Ferdinand Brunot"
  },
  {
    "street" : "20, Rue De La Fontaine A Mulard",
    "zipcode" : "75013",
    "id" : "253",
    "city" : "PARIS",
    "address" : "20, Rue De La Fontaine A Mulard 75013 PARIS France",
    "coordinates" : [
      2.3488134,
      48.8230494
    ],
    "title" : "Square Fontaine A Mulard"
  },
  {
    "street" : "211, Boulevard Massena",
    "zipcode" : "75013",
    "id" : "254",
    "city" : "PARIS",
    "address" : "211, Boulevard Massena 75013 PARIS France",
    "coordinates" : [
      2.3608941,
      48.8190405
    ],
    "title" : "Square Gandon Et Massena"
  },
  {
    "street" : "14, Rue Payenne",
    "zipcode" : "75003",
    "id" : "255",
    "city" : "PARIS",
    "address" : "14, Rue Payenne 75003 PARIS France",
    "coordinates" : [
      2.3628121,
      48.8586955
    ],
    "title" : "Square Georges Cain"
  },
  {
    "street" : "Rue Jean Anouilh",

    "zipcode" : "75013",
    "id" : "256",
    "city" : "PARIS",
    "address" : "Rue Jean Anouilh 75013 PARIS France",
    "coordinates" : [
      2.3774124,
      48.8320595
    ],
    "title" : "Square Georges Duhamel"
  },
  {
    "street" : "22, Rue Pierre Gourdault",
    "zipcode" : "75013",
    "id" : "257",
    "city" : "PARIS",
    "address" : "22, Rue Pierre Gourdault 75013 PARIS France",
    "coordinates" : [
      2.3698621,
      48.83078339999999
    ],
    "title" : "Square Heloise Et Abelard"
  },
  {
    "street" : "69, Boulevard Arago",
    "zipcode" : "75013",
    "id" : "258",
    "city" : "PARIS",
    "address" : "69, Boulevard Arago 75013 PARIS France",
    "coordinates" : [
      2.3426246,
      48.83484199999999
    ],
    "title" : "Square Henri Cadiou"
  },
  {
    "street" : "32, Avenue De La Porte De Saint Ouen",
    "zipcode" : "75018",
    "id" : "259",
    "city" : "PARIS",
    "address" : "32, Avenue De La Porte De Saint Ouen 75018 PARIS France",
    "coordinates" : [
      2.3298328,
      48.8994583
    ],
    "title" : "Square Henri Huchard"
  },
  {
    "street" : "Avenue Jean Aicard",
    "zipcode" : "75011",
    "id" : "260",
    "city" : "PARIS",
    "address" : "Avenue Jean Aicard 75011 PARIS France",
    "coordinates" : [
      2.3810834,
      48.8652966
    ],
    "title" : "Square Jean Aicard"
  },
  {
    "street" : "79,  Boulevard Kellermann",
    "zipcode" : "75013",
    "id" : "261",
    "city" : "PARIS",
    "address" : "79,  Boulevard Kellermann 75013 PARIS France",
    "coordinates" : [
      2.347968,
      48.8202254
    ],
    "title" : "Square Jean Claude Nicolas Forestier"
  },
  {
    "street" : "Rue Du Cloitre Notre Dame",
    "zipcode" : "75004",
    "id" : "262",
    "city" : "PARIS",
    "address" : "Rue Du Cloitre Notre Dame 75004 PARIS France",
    "coordinates" : [
      2.3505766,
      48.8531376
    ],
    "title" : "Square Jean Xxiii"
  },
  {
    "street" : "Rue Du Cloitre Notre Dame",
    "zipcode" : "75004",
    "id" : "263",
    "city" : "PARIS",
    "address" : "Rue Du Cloitre Notre Dame 75004 PARIS France",
    "coordinates" : [
      2.3505766,
      48.8531376
    ],
    "title" : "Square Jean Xxiii"
  },
  {
    "street" : "Rue Julia Bartet",
    "zipcode" : "75014",
    "id" : "264",
    "city" : "PARIS",
    "address" : "Rue Julia Bartet 75014 PARIS France",
    "coordinates" : [
      2.3030995,
      48.8263228
    ],
    "title" : "Square Julia Bartet"
  },
  {
    "street" : "Angle Rue Juliette Dodu",
    "zipcode" : "75010",
    "id" : "265",
    "city" : "PARIS",
    "address" : "Angle Rue Juliette Dodu 75010 PARIS France",
    "coordinates" : [
      2.3691871,
      48.87530210000001
    ],
    "title" : "Square Juliette Dodu"
  },
  {
    "street" : "4, Rue Servan",
    "zipcode" : "75011",
    "id" : "266",
    "city" : "PARIS",
    "address" : "4, Rue Servan 75011 PARIS France",
    "coordinates" : [
      2.38326,
      48.86050119999999
    ],
    "title" : "Square La Petite Roquette"
  },
  {
    "street" : "Passage Leon",
    "zipcode" : "75018",
    "id" : "267",
    "city" : "PARIS",
    "address" : "Passage Leon 75018 PARIS France",
    "coordinates" : [
      2.3536048,
      48.8889557
    ],
    "title" : "Square Leon"
  },
  {
    "street" : "25, Rue Des Cloys",
    "zipcode" : "75018",
    "id" : "268",
    "city" : "PARIS",
    "address" : "25, Rue Des Cloys 75018 PARIS France",
    "coordinates" : [
      2.3392781,
      48.8928088
    ],
    "title" : "Square Leon Serpollet"
  },
  {
    "street" : "13-13Bis, Rue Payenne",
    "zipcode" : "75003",
    "id" : "269",
    "city" : "PARIS",
    "address" : "13-13Bis, Rue Payenne 75003 PARIS France",
    "coordinates" : [
      2.3625484,
      48.8583755
    ],
    "title" : "Square Leopold Achille"
  },
  {
    "street" : "30 Place Des Vosges",
    "zipcode" : "75004",
    "id" : "270",
    "city" : "PARIS",
    "address" : "30 Place Des Vosges 75004 PARIS France",
    "coordinates" : [
      2.365771,
      48.8561922
    ],
    "title" : "Square Louis Xiii"
  },
  {
    "street" : "Rue Pasquier",
    "zipcode" : "75008",
    "id" : "271",
    "city" : "PARIS",
    "address" : "Rue Pasquier 75008 PARIS France",
    "coordinates" : [
      2.3235837,
      48.8730512
    ],
    "title" : "Square Louis Xvi"
  },
  {
    "street" : "2, Rue Pierre Reverdy",
    "zipcode" : "75019",
    "id" : "272",
    "city" : "PARIS",
    "address" : "2, Rue Pierre Reverdy 75019 PARIS France",
    "coordinates" : [
      2.3763591,
      48.8852925
    ],
    "title" : "Square Marcel Mouloudji"
  },
  {
    "street" : "Place Henri Bergson",
    "zipcode" : "75008",
    "id" : "273",
    "city" : "PARIS",
    "address" : "Place Henri Bergson 75008 PARIS France",
    "coordinates" : [
      2.3211069,
      48.8761537
    ],
    "title" : "Square Marcel Pagnol"
  },
  {
    "street" : "Rue Lacharriere",
    "zipcode" : "75011",
    "id" : "274",
    "city" : "PARIS",
    "address" : "Rue Lacharriere 75011 PARIS France",
    "coordinates" : [
      2.3773638,
      48.8616643
    ],
    "title" : "Square Maurice Gardette"
  },
  {
    "street" : "105, Rue Jeanne D'Arc",
    "zipcode" : "75013",
    "id" : "275",
    "city" : "PARIS",
    "address" : "105, Rue Jeanne D'Arc 75013 PARIS France",
    "coordinates" : [
      2.3628571,
      48.83392910000001
    ],
    "title" : "Square Gustave Mesureur"
  },
  {
    "street" : "Rue La Fayette",
    "zipcode" : "75009",
    "id" : "276",
    "city" : "PARIS",
    "address" : "Rue La Fayette 75009 PARIS France",
    "coordinates" : [
      2.347397,
      48.8767942
    ],
    "title" : "Square Montholon"
  },
  {
    "street" : "19 Bis, Rue De L'Orillon",
    "zipcode" : "75011",
    "id" : "277",
    "city" : "PARIS",
    "address" : "19 Bis, Rue De L'Orillon 75011 PARIS France",
    "coordinates" : [
      2.3753578,
      48.8700054
    ],
    "title" : "Square Orillon Jules Vernes"
  },
  {
    "street" : "Boulevard Du Montparnasse",
    "zipcode" : "75006",
    "id" : "278",
    "city" : "PARIS",
    "address" : "Boulevard Du Montparnasse 75006 PARIS France",
    "coordinates" : [
      2.3259055,
      48.8433009
    ],
    "title" : "Square Ozanam"
  },
  {
    "street" : "20 Rue Monge",
    "zipcode" : "75005",
    "id" : "279",
    "city" : "PARIS",
    "address" : "20 Rue Monge 75005 PARIS France",
    "coordinates" : [
      2.3500392,
      48.8484061
    ],
    "title" : "Square Paul Langevin"
  },
  {
    "street" : "Rue Pixerecourt",
    "zipcode" : "75020",
    "id" : "280",
    "city" : "PARIS",
    "address" : "Rue Pixerecourt 75020 PARIS France",
    "coordinates" : [
      2.3961869,
      48.87276960000001
    ],
    "title" : "Square Pixerecourt"
  },
  {
    "street" : "43, Rue Corvisart",
    "zipcode" : "75013",
    "id" : "281",
    "city" : "PARIS",
    "address" : "43, Rue Corvisart 75013 PARIS France",
    "coordinates" : [
      2.3484291,
      48.83069769999999
    ],
    "title" : "Square Rene Legall"
  },
  {
    "street" : "Rue Lagrange",
    "zipcode" : "75005",
    "id" : "282",
    "city" : "PARIS",
    "address" : "Rue Lagrange 75005 PARIS France",
    "coordinates" : [
      2.3480899,
      48.8512031
    ],
    "title" : "Square Rene Viviani"
  },
  {
    "street" : "67, Boulevard Richard Lenoir",
    "zipcode" : "75011",
    "id" : "283",
    "city" : "PARIS",
    "address" : "67, Boulevard Richard Lenoir 75011 PARIS France",
    "coordinates" : [
      2.3720475,
      48.8603444
    ],
    "title" : "Promenade Richard Lenoir"
  },
  {
    "street" : "43 Rue Blomet",
    "zipcode" : "75015",
    "id" : "284",
    "city" : "PARIS",
    "address" : "43 Rue Blomet 75015 PARIS France",
    "coordinates" : [
      2.305418,
      48.8424694
    ],
    "title" : "Square Blomet"
  },
  {
    "street" : "15, Rue Sainte Claire Decity",
    "zipcode" : "75012",
    "id" : "285",
    "city" : "PARIS",
    "address" : "15, Rue Sainte Claire Decity 75012 PARIS France",
    "coordinates" : [
      2.387484,
      48.8442453
    ],
    "title" : "Square Saint Eloi"
  },
  {
    "street" : "1, Rue Theophraste Renaudot",
    "zipcode" : "75015",
    "id" : "286",
    "city" : "PARIS",
    "address" : "1, Rue Theophraste Renaudot 75015 PARIS France",
    "coordinates" : [
      2.2953413,
      48.8429271
    ],
    "title" : "Square Saint Lambert 1"
  },
  {
    "street" : "1, Rue Theophraste Renaudot",
    "zipcode" : "75015",
    "id" : "287",
    "city" : "PARIS",
    "address" : "1, Rue Theophraste Renaudot 75015 PARIS France",
    "coordinates" : [
      2.2953413,
      48.8429271
    ],
    "title" : "Square Saint Lambert 2"
  },
  {
    "street" : "32 Rue Censier",
    "zipcode" : "75005",
    "id" : "288",
    "city" : "PARIS",
    "address" : "32 Rue Censier 75005 PARIS France",
    "coordinates" : [
      2.3518409,
      48.8401063
    ],
    "title" : "Square Saint Medard"
  },
  {
    "street" : "9, Avenue Gambetta",
    "zipcode" : "75020",
    "id" : "289",
    "city" : "PARIS",
    "address" : "9, Avenue Gambetta 75020 PARIS France",
    "coordinates" : [
      2.3895489,
      48.8635105
    ],
    "title" : "Square Samuel Champlain"
  },
  {
    "street" : "Rue De Lagny",
    "zipcode" : "75020",
    "id" : "290",
    "city" : "PARIS",
    "address" : "Rue De Lagny 75020 PARIS France",
    "coordinates" : [
      2.4112734,
      48.8490623
    ],
    "title" : "Square Sarah Berhnardt"
  },
  {
    "street" : "8, Rue Scipion",
    "zipcode" : "75005",
    "id" : "291",
    "city" : "PARIS",
    "address" : "8, Rue Scipion 75005 PARIS France",
    "coordinates" : [
      2.3538307,
      48.8384181
    ],
    "title" : "Square Scipion"
  },
  {
    "street" : "Avenue Ernest Reyer",
    "zipcode" : "75014",
    "id" : "292",
    "city" : "PARIS",
    "address" : "Avenue Ernest Reyer 75014 PARIS France",
    "coordinates" : [
      2.3214999,
      48.8229787
    ],
    "title" : "Square Serment De Koufra"
  },
  {
    "street" : "41, Rue Letort.",
    "zipcode" : "75018",
    "id" : "293",
    "city" : "PARIS",
    "address" : "41, Rue Letort. 75018 PARIS France",
    "coordinates" : [
      2.3434097,
      48.8959544
    ],
    "title" : "Square Sainte-Helene"
  },
  {
    "street" : "7, Rue Girardon.",
    "zipcode" : "75018",
    "id" : "294",
    "city" : "PARIS",
    "address" : "7, Rue Girardon. 75018 PARIS France",
    "coordinates" : [
      2.3376597,
      48.8879519
    ],
    "title" : "Square Suzanne Buisson"
  },
  {
    "street" : "Rue Blanche",
    "zipcode" : "75009",
    "id" : "295",
    "city" : "PARIS",
    "address" : "Rue Blanche 75009 PARIS France",
    "coordinates" : [
      2.3314082,
      48.8804027
    ],
    "title" : "Square Trinite D'Estienne D'Orves"
  },
  {
    "street" : "Place Violet",
    "zipcode" : "75015",
    "id" : "296",
    "city" : "PARIS",
    "address" : "Place Violet 75015 PARIS France",
    "coordinates" : [
      2.2904912,
      48.8446649
    ],
    "title" : "Square Violet"
  },
  {
    "street" : "70, Rue De Pizipcodeus",
    "zipcode" : "75012",
    "id" : "297",
    "city" : "PARIS",
    "address" : "70, Rue De Pizipcodeus 75012 PARIS France",
    "coordinates" : [
      2.3881833,
      48.8408083
    ],
    "title" : "Bibliothèque Pizipcodeus"
  },
  {
    "street" : "25, Rue Lantiez",
    "zipcode" : "75017",
    "id" : "298",
    "city" : "PARIS",
    "address" : "25, Rue Lantiez 75017 PARIS France",
    "coordinates" : [
      2.3236627,
      48.8949435
    ],
    "title" : "Maison des Associations Du 17eme"
  },
  {
    "street" : "Rue D Aubervillier",
    "zipcode" : "75018",
    "id" : "299",
    "city" : "PARIS",
    "address" : "Rue D Aubervillier 75018 PARIS France",
    "coordinates" : [
      2.3444472,
      48.89215
    ],
    "title" : "Jardin D Eole 2"
  },
  {
    "street" : "81 BLD MASSENA",
    "zipcode" : "75013",
    "id" : "300",
    "city" : "PARIS",
    "address" : "81 BLD MASSENA 75013 PARIS France",
    "coordinates" : [
      2.3671874,
      48.8205033
    ],
    "title" : "HALLE GEORGES CARPENTIER"
  },
  {
    "street" : "88 RUE DE RIVOLI",
    "zipcode" : "75004",
    "id" : "301",
    "city" : "PARIS",
    "address" : "88 RUE DE RIVOLI 75004 PARIS France",
    "coordinates" : [
      2.3495712,
      48.85816459999999
    ],
    "title" : "TOUR ST JACQUES"
  },
  {
    "street" : "148 AVENUE GAMBETTA",
    "zipcode" : "75020",
    "id" : "302",
    "city" : "PARIS",
    "address" : "148 AVENUE GAMBETTA 75020 PARIS France",
    "coordinates" : [
      2.4059957,
      48.8754722
    ],
    "title" : "PISCINE GEORGES VALLEREY"
  },
  {
    "street" : "21 AVENUE DE LA PORTE DE CHATILLON",
    "zipcode" : "75014",
    "id" : "303",
    "city" : "PARIS",
    "address" : "21 AVENUE DE LA PORTE DE CHATILLON 75014 PARIS France",
    "coordinates" : [
      2.3163557,
      48.8231749
    ],
    "title" : "INSTITUT DU JUDO"
  },
  {
    "street" : "115 RUE DE BAGNOLET",
    "zipcode" : "75020",
    "id" : "304",
    "city" : "PARIS",
    "address" : "115 RUE DE BAGNOLET 75020 PARIS France",
    "coordinates" : [
      2.4036253,
      48.8599582
    ],
    "title" : "MEDIATHEQUE MARGUERITE DURAS"
  },
  {
    "street" : "81 BLD MASSENA",
    "zipcode" : "75013",
    "id" : "305",
    "city" : "PARIS",
    "address" : "81 BLD MASSENA 75013 PARIS France",
    "coordinates" : [
      2.3671874,
      48.8205033
    ],
    "title" : "HALLE GEORGES CARPENTIER ANNEXE HALL"
  },
  {
    "street" : "81 BLD MASSENA",
    "zipcode" : "75013",
    "id" : "306",
    "city" : "PARIS",
    "address" : "81 BLD MASSENA 75013 PARIS France",
    "coordinates" : [
      2.3671874,
      48.8205033
    ],
    "title" : "HALLE GEORGES CARPENTIER TENNIS DE TABLE"
  },
  {
    "street" : "69 RUE VIOLET",
    "zipcode" : "75015",
    "id" : "307",
    "city" : "PARIS",
    "address" : "69 RUE VIOLET 75015 PARIS France",
    "coordinates" : [
      2.2913132,
      48.84557119999999
    ],
    "title" : "Maison Communale du 15 ème"
  },
  {
    "street" : "30-32 Avenue Porte de Montmartre",
    "zipcode" : "75018",
    "id" : "308",
    "city" : "PARIS",
    "address" : "30-32 Avenue Porte de Montmartre 75018 PARIS France",
    "coordinates" : [
      2.3355236,
      48.900535
    ],
    "title" : "Bibliothèque Porte Montmartre"
  },
  {
    "street" : "3 RUE JEAN ANTOINE DE BAIF",
    "zipcode" : "75013",
    "id" : "309",
    "city" : "PARIS",
    "address" : "3 RUE JEAN ANTOINE DE BAIF 75013 PARIS France",
    "coordinates" : [
      2.384606,
      48.8279603
    ],
    "title" : "MAISON DES INITIATIVES"
  },
  {
    "street" : "1, Place De La Republique Dominicaine",
    "zipcode" : "75008",
    "id" : "310",
    "city" : "PARIS",
    "address" : "1, Place De La Republique Dominicaine 75008 PARIS France",
    "coordinates" : [
      2.3091978,
      48.8804486
    ],
    "title" : "Parc Monceau"
  },
  {
    "street" : "5 bis rue du Louvre",
    "zipcode" : "75001",
    "id" : "311",
    "city" : "PARIS",
    "address" : "5 bis rue du Louvre 75001 PARIS France",
    "coordinates" : [
      2.3412331,
      48.8619822
    ],
    "title" : "Maison des Associations du 1er -"
  },
  {
    "street" : "209 rue Lafayette",
    "zipcode" : "75010",
    "id" : "312",
    "city" : "PARIS",
    "address" : "209 rue Lafayette 75010 PARIS France",
    "coordinates" : [
      2.3640222,
      48.8812565
    ],
    "title" : "MAISON DES ENTREPRISES ET DE L'EMPLOI DU 10eme"
  }
]